[
{"driver_id":"AI_2001","name":"Bilal Chaudhry","city":"Lahore","lat":31.5321,"lon":74.3421,"avg_rating":4.72,"rating_count":87,"completed_jobs":342,"accepted_jobs":358,"cancellations":3,"license_type":"LTV","years_experience":5,"avg_response_time_min":4.2,"is_online":true,"reviews":["Bilal bhai is the best driver in Lahore! Always on time and very professional.","Drove from Gulberg to DHA in rush hour. Very skilled with traffic handling.","Trustworthy and honest. Treats my car with great care. Highly recommended!","A bit late once but apologized. Still overall excellent driving skills.","Smooth driving even on Canal Road during peak hours. Felt very safe."],"job_timestamps":["2026-02-15 09:23:45","2026-02-10 18:45:12","2026-02-05 14:32:20","2026-01-28 07:15:30","2026-01-20 21:10:15"]},
{"driver_id":"AI_2002","name":"Ahmed Khan","city":"Karachi","lat":24.8701,"lon":67.0111,"avg_rating":4.85,"rating_count":120,"completed_jobs":450,"accepted_jobs":455,"cancellations":2,"license_type":"LTV","years_experience":8,"avg_response_time_min":3.5,"is_online":true,"reviews":["Ahmed bhai knows every shortcut in Karachi. Saved us an hour on Shahrah-e-Faisal.","Very disciplined driver. No rash braking or acceleration.","Polite behavior with family. Felt completely secure.","Excellent route knowledge around Clifton and Defence.","Always arrives 5 minutes early. Professionalism at its best."],"job_timestamps":["2026-02-14 10:00:00","2026-02-12 15:30:00","2026-02-08 09:15:00","2026-01-30 18:20:00","2026-01-25 12:45:00"]},
{"driver_id":"AI_2003","name":"Usman Malik","city":"Islamabad","lat":33.6900,"lon":73.0500,"avg_rating":4.60,"rating_count":45,"completed_jobs":150,"accepted_jobs":160,"cancellations":4,"license_type":"LTV+HTV","years_experience":6,"avg_response_time_min":5.0,"is_online":false,"reviews":["Good driver for long trips on Motorway. Very steady.","Knows Islamabad sectors very well. No wrong turns.","Punctual and respectful. Would hire again.","Driving style is calm and safe.","Professional attitude throughout the journey."],"job_timestamps":["2026-02-13 08:00:00","2026-02-01 14:00:00","2026-01-20 10:00:00","2026-01-15 16:00:00","2026-01-10 09:00:00"]},
{"driver_id":"AI_2004","name":"Hassan Raza","city":"Rawalpindi","lat":33.5700,"lon":73.0200,"avg_rating":3.90,"rating_count":30,"completed_jobs":100,"accepted_jobs":115,"cancellations":10,"license_type":"HTV","years_experience":4,"avg_response_time_min":12.0,"is_online":true,"reviews":["Average driving skills. Got stuck in traffic due to route choice.","Late by 15 minutes but informed beforehand.","Behavior was okay. Nothing special.","Knows main roads but not shortcuts.","Safe driving but a bit slow."],"job_timestamps":["2026-02-11 11:00:00","2026-02-05 13:00:00","2026-01-28 09:00:00","2026-01-22 15:00:00","2026-01-18 10:00:00"]},
{"driver_id":"AI_2005","name":"Faisal Qureshi","city":"Faisalabad","lat":31.4200,"lon":73.0800,"avg_rating":4.55,"rating_count":60,"completed_jobs":200,"accepted_jobs":210,"cancellations":5,"license_type":"LTV","years_experience":7,"avg_response_time_min":6.0,"is_online":true,"reviews":["Excellent handling of heavy traffic on College Road.","Very trustworthy. Left phone behind, he returned it.","Smooth driving experience. No sudden jerks.","Polite and well-mannered driver.","Knows Faisalabad like the back of his hand."],"job_timestamps":["2026-02-10 07:30:00","2026-02-03 12:30:00","2026-01-25 17:30:00","2026-01-19 08:30:00","2026-01-12 14:30:00"]},
{"driver_id":"AI_2006","name":"Imran Ali","city":"Peshawar","lat":34.0200,"lon":71.5300,"avg_rating":2.80,"rating_count":15,"completed_jobs":80,"accepted_jobs":100,"cancellations":25,"license_type":"PSV","years_experience":2,"avg_response_time_min":25.0,"is_online":false,"reviews":["Late multiple times. Poor time management.","Driving was a bit rash. Felt unsafe.","Got lost on main road. Poor route knowledge.","Behavior was rude when asked about delay.","Needs improvement in driving skills."],"job_timestamps":["2026-02-09 10:00:00","2026-01-30 11:00:00","2026-01-20 12:00:00","2026-01-15 13:00:00","2026-01-10 14:00:00"]},
{"driver_id":"AI_2007","name":"Zubair Ahmed","city":"Multan","lat":30.1600,"lon":71.5300,"avg_rating":4.10,"rating_count":40,"completed_jobs":130,"accepted_jobs":145,"cancellations":8,"license_type":"LTV","years_experience":5,"avg_response_time_min":10.0,"is_online":true,"reviews":["Good driver overall. Knows Multan roads well.","Punctual mostly. One delay due to traffic.","Safe driving habits. No complaints.","Professional behavior during the trip.","Would recommend for city travel."],"job_timestamps":["2026-02-08 09:00:00","2026-02-01 10:00:00","2026-01-24 11:00:00","2026-01-18 12:00:00","2026-01-12 13:00:00"]},
{"driver_id":"AI_2008","name":"Tariq Mahmood","city":"Gujranwala","lat":32.1900,"lon":74.2000,"avg_rating":4.75,"rating_count":90,"completed_jobs":300,"accepted_jobs":310,"cancellations":3,"license_type":"LTV+HTV","years_experience":10,"avg_response_time_min":4.0,"is_online":true,"reviews":["Veteran driver. Very experienced and calm.","Knows all bypass routes to avoid traffic.","Excellent discipline. No phone usage while driving.","Very polite with passengers. Great service.","Safe and secure journey every time."],"job_timestamps":["2026-02-07 08:00:00","2026-01-31 09:00:00","2026-01-23 10:00:00","2026-01-17 11:00:00","2026-01-11 12:00:00"]},
{"driver_id":"AI_2009","name":"Naveed Hussain","city":"Hyderabad","lat":25.4000,"lon":68.3600,"avg_rating":3.50,"rating_count":20,"completed_jobs":90,"accepted_jobs":105,"cancellations":12,"license_type":"HTV","years_experience":3,"avg_response_time_min":15.0,"is_online":false,"reviews":["Average performance. Nothing outstanding.","Took a longer route unnecessarily.","Driving was okay but not smooth.","Late arrival without proper notice.","Behavior was neutral. No issues."],"job_timestamps":["2026-02-06 07:00:00","2026-01-29 08:00:00","2026-01-22 09:00:00","2026-01-16 10:00:00","2026-01-10 11:00:00"]},
{"driver_id":"AI_2010","name":"Shahid Iqbal","city":"Quetta","lat":30.1800,"lon":66.9800,"avg_rating":4.40,"rating_count":35,"completed_jobs":120,"accepted_jobs":130,"cancellations":6,"license_type":"LTV","years_experience":6,"avg_response_time_min":8.0,"is_online":true,"reviews":["Good knowledge of Quetta streets.","Safe driving on hilly roads.","Punctual and responsible.","Polite nature. Good communication.","Reliable driver for intercity trips."],"job_timestamps":["2026-02-05 06:00:00","2026-01-28 07:00:00","2026-01-21 08:00:00","2026-01-15 09:00:00","2026-01-09 10:00:00"]},
{"driver_id":"AI_2011","name":"Kamran Akmal","city":"Karachi","lat":24.8500,"lon":67.0200,"avg_rating":4.90,"rating_count":150,"completed_jobs":480,"accepted_jobs":485,"cancellations":1,"license_type":"LTV","years_experience":12,"avg_response_time_min":3.0,"is_online":true,"reviews":["Best driver I have hired in Karachi. Exceptional.","Zero rash driving. Extremely cautious.","Knows every lane in Saddar and Tariq Road.","Trustworthy with valuables. Highly honest.","Perfect punctuality. Never waited even a minute."],"job_timestamps":["2026-02-04 05:00:00","2026-01-27 06:00:00","2026-01-20 07:00:00","2026-01-14 08:00:00","2026-01-08 09:00:00"]},
{"driver_id":"AI_2012","name":"Rashid Latif","city":"Lahore","lat":31.5100,"lon":74.3600,"avg_rating":3.20,"rating_count":25,"completed_jobs":110,"accepted_jobs":135,"cancellations":20,"license_type":"PSV","years_experience":4,"avg_response_time_min":20.0,"is_online":false,"reviews":["Often cancels at the last minute.","Driving style is aggressive.","Got lost near Liberty Market.","Late by 30 minutes. Poor planning.","Behavior was unprofessional."],"job_timestamps":["2026-02-03 04:00:00","2026-01-26 05:00:00","2026-01-19 06:00:00","2026-01-13 07:00:00","2026-01-07 08:00:00"]},
{"driver_id":"AI_2013","name":"Saeed Anwar","city":"Sialkot","lat":32.5000,"lon":74.5300,"avg_rating":4.65,"rating_count":55,"completed_jobs":180,"accepted_jobs":190,"cancellations":4,"license_type":"LTV","years_experience":8,"avg_response_time_min":5.5,"is_online":true,"reviews":["Excellent driver for Sialkot routes.","Very careful and attentive.","Good behavior with elders.","Knows industrial area roads well.","Safe and timely delivery."],"job_timestamps":["2026-02-02 03:00:00","2026-01-25 04:00:00","2026-01-18 05:00:00","2026-01-12 06:00:00","2026-01-06 07:00:00"]},
{"driver_id":"AI_2014","name":"Waqar Younis","city":"Islamabad","lat":33.6700,"lon":73.0600,"avg_rating":4.20,"rating_count":50,"completed_jobs":160,"accepted_jobs":175,"cancellations":7,"license_type":"LTV+HTV","years_experience":5,"avg_response_time_min":9.0,"is_online":true,"reviews":["Solid driver. No major complaints.","Knows Blue Area traffic well.","Punctual most of the time.","Driving is smooth.","Professional conduct."],"job_timestamps":["2026-02-01 02:00:00","2026-01-24 03:00:00","2026-01-17 04:00:00","2026-01-11 05:00:00","2026-01-05 06:00:00"]},
{"driver_id":"AI_2015","name":"Inzamam Haq","city":"Faisalabad","lat":31.4100,"lon":73.0900,"avg_rating":2.50,"rating_count":10,"completed_jobs":60,"accepted_jobs":85,"cancellations":30,"license_type":"HTV","years_experience":1,"avg_response_time_min":30.0,"is_online":false,"reviews":["Very inexperienced. Hesitant driving.","Cancelled twice before arrival.","Poor knowledge of city roads.","Rude behavior when questioned.","Would not hire again."],"job_timestamps":["2026-01-31 01:00:00","2026-01-23 02:00:00","2026-01-16 03:00:00","2026-01-10 04:00:00","2026-01-04 05:00:00"]},
{"driver_id":"AI_2016","name":"Yousuf Khan","city":"Rawalpindi","lat":33.5500,"lon":73.0300,"avg_rating":4.50,"rating_count":65,"completed_jobs":220,"accepted_jobs":230,"cancellations":5,"license_type":"LTV","years_experience":7,"avg_response_time_min":6.5,"is_online":true,"reviews":["Great experience on Murree Road.","Very cautious on curves.","Polite and helpful.","Knows Pindi markets well.","Timely and reliable."],"job_timestamps":["2026-01-30 00:00:00","2026-01-22 01:00:00","2026-01-15 02:00:00","2026-01-09 03:00:00","2026-01-03 04:00:00"]},
{"driver_id":"AI_2017","name":"Mohammad Amir","city":"Karachi","lat":24.8800,"lon":67.0300,"avg_rating":4.80,"rating_count":110,"completed_jobs":400,"accepted_jobs":410,"cancellations":2,"license_type":"LTV","years_experience":9,"avg_response_time_min":3.8,"is_online":true,"reviews":["Superb driving skills in heavy rain.","Knows alternate routes during jams.","Very respectful driver.","Safe handling of traffic.","Highly recommended for airport trips."],"job_timestamps":["2026-01-29 23:00:00","2026-01-21 00:00:00","2026-01-14 01:00:00","2026-01-08 02:00:00","2026-01-02 03:00:00"]},
{"driver_id":"AI_2018","name":"Shoaib Akhtar","city":"Lahore","lat":31.5400,"lon":74.3700,"avg_rating":3.80,"rating_count":35,"completed_jobs":140,"accepted_jobs":160,"cancellations":15,"license_type":"PSV","years_experience":3,"avg_response_time_min":14.0,"is_online":false,"reviews":["Fast driving but sometimes risky.","Late often due to personal reasons.","Average route knowledge.","Behavior is okay.","Needs to improve punctuality."],"job_timestamps":["2026-01-28 22:00:00","2026-01-20 23:00:00","2026-01-13 00:00:00","2026-01-07 01:00:00","2026-01-01 02:00:00"]},
{"driver_id":"AI_2019","name":"Danish Kaneria","city":"Multan","lat":30.1700,"lon":71.5400,"avg_rating":4.30,"rating_count":45,"completed_jobs":150,"accepted_jobs":165,"cancellations":8,"license_type":"LTV","years_experience":6,"avg_response_time_min":8.5,"is_online":true,"reviews":["Good driver for Multan city.","Safe and steady.","Polite conversation.","Knows main hubs well.","Reliable service."],"job_timestamps":["2026-01-27 21:00:00","2026-01-19 22:00:00","2026-01-12 23:00:00","2026-01-06 00:00:00","2025-12-31 01:00:00"]},
{"driver_id":"AI_2020","name":"Misbah Ul Haq","city":"Peshawar","lat":34.0300,"lon":71.5400,"avg_rating":4.70,"rating_count":80,"completed_jobs":280,"accepted_jobs":290,"cancellations":3,"license_type":"LTV+HTV","years_experience":11,"avg_response_time_min":4.5,"is_online":true,"reviews":["Very experienced driver.","Calm demeanor under pressure.","Excellent knowledge of Khyber Pass routes.","Trustworthy and honest.","Professional throughout."],"job_timestamps":["2026-01-26 20:00:00","2026-01-18 21:00:00","2026-01-11 22:00:00","2026-01-05 23:00:00","2025-12-30 00:00:00"]},
{"driver_id":"AI_2021","name":"Iftikhar Ahmed","city":"Gujranwala","lat":32.2000,"lon":74.2100,"avg_rating":3.60,"rating_count":28,"completed_jobs":100,"accepted_jobs":120,"cancellations":14,"license_type":"HTV","years_experience":4,"avg_response_time_min":16.0,"is_online":false,"reviews":["Average skills. Nothing special.","Took longer route.","Late by 20 minutes.","Driving was okay.","Behavior was neutral."],"job_timestamps":["2026-01-25 19:00:00","2026-01-17 20:00:00","2026-01-10 21:00:00","2026-01-04 22:00:00","2025-12-29 23:00:00"]},
{"driver_id":"AI_2022","name":"Babar Azam","city":"Hyderabad","lat":25.4100,"lon":68.3700,"avg_rating":4.55,"rating_count":50,"completed_jobs":170,"accepted_jobs":180,"cancellations":5,"license_type":"LTV","years_experience":7,"avg_response_time_min":6.0,"is_online":true,"reviews":["Excellent captain of the wheel.","Very disciplined driving.","Knows Hyderabad traffic well.","Punctual and polite.","Safe journey guaranteed."],"job_timestamps":["2026-01-24 18:00:00","2026-01-16 19:00:00","2026-01-09 20:00:00","2026-01-03 21:00:00","2025-12-28 22:00:00"]},
{"driver_id":"AI_2023","name":"Fakhar Zaman","city":"Quetta","lat":30.1900,"lon":66.9900,"avg_rating":4.15,"rating_count":38,"completed_jobs":130,"accepted_jobs":145,"cancellations":9,"license_type":"LTV","years_experience":5,"avg_response_time_min":10.5,"is_online":true,"reviews":["Good aggressive driving style.","Knows city well.","On time mostly.","Polite behavior.","Safe travel."],"job_timestamps":["2026-01-23 17:00:00","2026-01-15 18:00:00","2026-01-08 19:00:00","2026-01-02 20:00:00","2025-12-27 21:00:00"]},
{"driver_id":"AI_2024","name":"Shaheen Afridi","city":"Karachi","lat":24.8900,"lon":67.0400,"avg_rating":4.88,"rating_count":130,"completed_jobs":420,"accepted_jobs":425,"cancellations":1,"license_type":"LTV","years_experience":10,"avg_response_time_min":3.2,"is_online":true,"reviews":["Young but very mature driving.","Excellent speed control.","Knows all flyovers.","Very respectful.","Top notch service."],"job_timestamps":["2026-01-22 16:00:00","2026-01-14 17:00:00","2026-01-07 18:00:00","2026-01-01 19:00:00","2025-12-26 20:00:00"]},
{"driver_id":"AI_2025","name":"Hasan Ali","city":"Lahore","lat":31.5500,"lon":74.3800,"avg_rating":3.40,"rating_count":22,"completed_jobs":95,"accepted_jobs":115,"cancellations":18,"license_type":"PSV","years_experience":3,"avg_response_time_min":18.0,"is_online":false,"reviews":["Inconsistent performance.","Sometimes late.","Driving is average.","Route knowledge needs work.","Behavior is okay."],"job_timestamps":["2026-01-21 15:00:00","2026-01-13 16:00:00","2026-01-06 17:00:00","2025-12-31 18:00:00","2025-12-25 19:00:00"]},
{"driver_id":"AI_2026","name":"Mohammad Rizwan","city":"Islamabad","lat":33.7000,"lon":73.0700,"avg_rating":4.62,"rating_count":70,"completed_jobs":240,"accepted_jobs":250,"cancellations":4,"license_type":"LTV","years_experience":8,"avg_response_time_min":5.2,"is_online":true,"reviews":["Very reliable driver.","Knows government sectors well.","Punctual and clean dressed.","Safe driving habits.","Professional attitude."],"job_timestamps":["2026-01-20 14:00:00","2026-01-12 15:00:00","2026-01-05 16:00:00","2025-12-30 17:00:00","2025-12-24 18:00:00"]},
{"driver_id":"AI_2027","name":"Sarfaraz Ahmed","city":"Faisalabad","lat":31.4300,"lon":73.1000,"avg_rating":4.05,"rating_count":42,"completed_jobs":145,"accepted_jobs":160,"cancellations":10,"license_type":"LTV+HTV","years_experience":6,"avg_response_time_min":11.0,"is_online":true,"reviews":["Good leadership on road.","Safe driving.","Knows textile market area.","On time mostly.","Polite nature."],"job_timestamps":["2026-01-19 13:00:00","2026-01-11 14:00:00","2026-01-04 15:00:00","2025-12-29 16:00:00","2025-12-23 17:00:00"]},
{"driver_id":"AI_2028","name":"Shadab Khan","city":"Rawalpindi","lat":33.5800,"lon":73.0400,"avg_rating":4.45,"rating_count":58,"completed_jobs":190,"accepted_jobs":200,"cancellations":6,"license_type":"LTV","years_experience":5,"avg_response_time_min":7.0,"is_online":true,"reviews":["Young and energetic driver.","Quick response time.","Good route planning.","Safe and secure.","Friendly behavior."],"job_timestamps":["2026-01-18 12:00:00","2026-01-10 13:00:00","2026-01-03 14:00:00","2025-12-28 15:00:00","2025-12-22 16:00:00"]},
{"driver_id":"AI_2029","name":"Imad Wasim","city":"Peshawar","lat":34.0400,"lon":71.5500,"avg_rating":3.95,"rating_count":32,"completed_jobs":115,"accepted_jobs":130,"cancellations":11,"license_type":"HTV","years_experience":4,"avg_response_time_min":13.0,"is_online":false,"reviews":["Decent driver.","Average punctuality.","Knows main roads.","Driving is smooth.","No major issues."],"job_timestamps":["2026-01-17 11:00:00","2026-01-09 12:00:00","2026-01-02 13:00:00","2025-12-27 14:00:00","2025-12-21 15:00:00"]},
{"driver_id":"AI_2030","name":"Wahab Riaz","city":"Multan","lat":30.1800,"lon":71.5500,"avg_rating":4.35,"rating_count":48,"completed_jobs":165,"accepted_jobs":175,"cancellations":7,"license_type":"LTV","years_experience":7,"avg_response_time_min":8.0,"is_online":true,"reviews":["Fast bowler fast driver.","Careful on turns.","Good knowledge of Multan.","Punctual.","Polite."],"job_timestamps":["2026-01-16 10:00:00","2026-01-08 11:00:00","2026-01-01 12:00:00","2025-12-26 13:00:00","2025-12-20 14:00:00"]},
{"driver_id":"AI_2031","name":"Junaid Khan","city":"Gujranwala","lat":32.2100,"lon":74.2200,"avg_rating":4.78,"rating_count":95,"completed_jobs":320,"accepted_jobs":330,"cancellations":3,"license_type":"LTV","years_experience":9,"avg_response_time_min":4.0,"is_online":true,"reviews":["Excellent left arm delivery on wheel.","Very smooth driving.","Knows all shortcuts.","Trustworthy.","Highly recommended."],"job_timestamps":["2026-01-15 09:00:00","2026-01-07 10:00:00","2025-12-31 11:00:00","2025-12-25 12:00:00","2025-12-19 13:00:00"]},
{"driver_id":"AI_2032","name":"Umar Akmal","city":"Hyderabad","lat":25.4200,"lon":68.3800,"avg_rating":2.90,"rating_count":18,"completed_jobs":85,"accepted_jobs":110,"cancellations":22,"license_type":"PSV","years_experience":2,"avg_response_time_min":22.0,"is_online":false,"reviews":["Unpredictable behavior.","Late often.","Driving is rash.","Poor route choice.","Not recommended."],"job_timestamps":["2026-01-14 08:00:00","2026-01-06 09:00:00","2025-12-30 10:00:00","2025-12-24 11:00:00","2025-12-18 12:00:00"]},
{"driver_id":"AI_2033","name":"Adnan Samad","city":"Quetta","lat":30.2000,"lon":67.0000,"avg_rating":4.25,"rating_count":40,"completed_jobs":140,"accepted_jobs":155,"cancellations":8,"license_type":"LTV","years_experience":6,"avg_response_time_min":9.0,"is_online":true,"reviews":["Good singer good driver.","Smooth voice smooth drive.","Knows Quetta well.","Punctual.","Polite."],"job_timestamps":["2026-01-13 07:00:00","2026-01-05 08:00:00","2025-12-29 09:00:00","2025-12-23 10:00:00","2025-12-17 11:00:00"]},
{"driver_id":"AI_2034","name":"Atif Aslam","city":"Karachi","lat":24.9000,"lon":67.0500,"avg_rating":4.92,"rating_count":140,"completed_jobs":460,"accepted_jobs":465,"cancellations":1,"license_type":"LTV","years_experience":11,"avg_response_time_min":2.8,"is_online":true,"reviews":["Jeene laga hoon driving ke sath.","Excellent service.","Very safe.","Knows every corner.","Best in Karachi."],"job_timestamps":["2026-01-12 06:00:00","2026-01-04 07:00:00","2025-12-28 08:00:00","2025-12-22 09:00:00","2025-12-16 10:00:00"]},
{"driver_id":"AI_2035","name":"Ali Zafar","city":"Lahore","lat":31.5600,"lon":74.3900,"avg_rating":3.70,"rating_count":30,"completed_jobs":125,"accepted_jobs":145,"cancellations":16,"license_type":"HTV","years_experience":4,"avg_response_time_min":15.0,"is_online":false,"reviews":["Average performance.","Late sometimes.","Driving okay.","Route knowledge average.","Behavior fine."],"job_timestamps":["2026-01-11 05:00:00","2026-01-03 06:00:00","2025-12-27 07:00:00","2025-12-21 08:00:00","2025-12-15 09:00:00"]},
{"driver_id":"AI_2036","name":"Farhan Saeed","city":"Islamabad","lat":33.7100,"lon":73.0800,"avg_rating":4.58,"rating_count":62,"completed_jobs":210,"accepted_jobs":220,"cancellations":5,"license_type":"LTV","years_experience":7,"avg_response_time_min":5.8,"is_online":true,"reviews":["Bol Meri Machli style driving.","Very fluid.","Safe.","Punctual.","Professional."],"job_timestamps":["2026-01-10 04:00:00","2026-01-02 05:00:00","2025-12-26 06:00:00","2025-12-20 07:00:00","2025-12-14 08:00:00"]},
{"driver_id":"AI_2037","name":"Hamza Ali","city":"Faisalabad","lat":31.4400,"lon":73.1100,"avg_rating":4.12,"rating_count":44,"completed_jobs":155,"accepted_jobs":170,"cancellations":9,"license_type":"LTV+HTV","years_experience":5,"avg_response_time_min":10.0,"is_online":true,"reviews":["Good actor good driver.","Disciplined.","Knows city.","On time.","Safe."],"job_timestamps":["2026-01-09 03:00:00","2026-01-01 04:00:00","2025-12-25 05:00:00","2025-12-19 06:00:00","2025-12-13 07:00:00"]},
{"driver_id":"AI_2038","name":"Ahsan Khan","city":"Rawalpindi","lat":33.5900,"lon":73.0500,"avg_rating":4.48,"rating_count":60,"completed_jobs":200,"accepted_jobs":210,"cancellations":6,"license_type":"LTV","years_experience":6,"avg_response_time_min":7.5,"is_online":true,"reviews":["Professional driver.","Safe habits.","Good knowledge.","Punctual.","Polite."],"job_timestamps":["2026-01-08 02:00:00","2025-12-31 03:00:00","2025-12-24 04:00:00","2025-12-18 05:00:00","2025-12-12 06:00:00"]},
{"driver_id":"AI_2039","name":"Noman Ijaz","city":"Peshawar","lat":34.0500,"lon":71.5600,"avg_rating":3.85,"rating_count":34,"completed_jobs":120,"accepted_jobs":140,"cancellations":13,"license_type":"HTV","years_experience":4,"avg_response_time_min":14.0,"is_online":false,"reviews":["Average driver.","Late sometimes.","Driving okay.","Route average.","Behavior fine."],"job_timestamps":["2026-01-07 01:00:00","2025-12-30 02:00:00","2025-12-23 03:00:00","2025-12-17 04:00:00","2025-12-11 05:00:00"]},
{"driver_id":"AI_2040","name":"Fahad Mustafa","city":"Multan","lat":30.1900,"lon":71.5600,"avg_rating":4.38,"rating_count":52,"completed_jobs":175,"accepted_jobs":185,"cancellations":7,"license_type":"LTV","years_experience":7,"avg_response_time_min":8.2,"is_online":true,"reviews":["Host with most driving skills.","Safe.","Punctual.","Polite.","Good knowledge."],"job_timestamps":["2026-01-06 00:00:00","2025-12-29 01:00:00","2025-12-22 02:00:00","2025-12-16 03:00:00","2025-12-10 04:00:00"]},
{"driver_id":"AI_2041","name":"Imran Ashraf","city":"Gujranwala","lat":32.2200,"lon":74.2300,"avg_rating":4.82,"rating_count":100,"completed_jobs":350,"accepted_jobs":360,"cancellations":3,"license_type":"LTV","years_experience":10,"avg_response_time_min":3.5,"is_online":true,"reviews":["Transformative driving experience.","Excellent.","Safe.","Fast.","Reliable."],"job_timestamps":["2025-12-31 23:00:00","2025-12-28 00:00:00","2025-12-21 01:00:00","2025-12-15 02:00:00","2025-12-09 03:00:00"]},
{"driver_id":"AI_2042","name":"Sami Khan","city":"Hyderabad","lat":25.4300,"lon":68.3900,"avg_rating":3.10,"rating_count":20,"completed_jobs":90,"accepted_jobs":115,"cancellations":20,"license_type":"PSV","years_experience":3,"avg_response_time_min":20.0,"is_online":false,"reviews":["Below average.","Late.","Rash.","Poor knowledge.","Rude."],"job_timestamps":["2025-12-30 22:00:00","2025-12-27 23:00:00","2025-12-20 00:00:00","2025-12-14 01:00:00","2025-12-08 02:00:00"]},
{"driver_id":"AI_2043","name":"Adnan Siddiqui","city":"Quetta","lat":30.2100,"lon":67.0100,"avg_rating":4.28,"rating_count":42,"completed_jobs":145,"accepted_jobs":160,"cancellations":8,"license_type":"LTV","years_experience":6,"avg_response_time_min":9.5,"is_online":true,"reviews":["Veteran actor veteran driver.","Safe.","Punctual.","Polite.","Good."],"job_timestamps":["2025-12-29 21:00:00","2025-12-26 22:00:00","2025-12-19 23:00:00","2025-12-13 00:00:00","2025-12-07 01:00:00"]},
{"driver_id":"AI_2044","name":"Humayun Saeed","city":"Karachi","lat":24.9100,"lon":67.0600,"avg_rating":4.95,"rating_count":160,"completed_jobs":490,"accepted_jobs":495,"cancellations":1,"license_type":"LTV","years_experience":13,"avg_response_time_min":2.5,"is_online":true,"reviews":["Star driver.","Perfect.","Safe.","Fast.","Best."],"job_timestamps":["2025-12-28 20:00:00","2025-12-25 21:00:00","2025-12-18 22:00:00","2025-12-12 23:00:00","2025-12-06 00:00:00"]},
{"driver_id":"AI_2045","name":"Fawad Khan","city":"Lahore","lat":31.5700,"lon":74.4000,"avg_rating":3.65,"rating_count":28,"completed_jobs":110,"accepted_jobs":130,"cancellations":15,"license_type":"HTV","years_experience":4,"avg_response_time_min":16.0,"is_online":false,"reviews":["Average.","Late.","Okay driving.","Average route.","Fine behavior."],"job_timestamps":["2025-12-27 19:00:00","2025-12-24 20:00:00","2025-12-17 21:00:00","2025-12-11 22:00:00","2025-12-05 23:00:00"]},
{"driver_id":"AI_2046","name":"Mahira Khan","city":"Islamabad","lat":33.7200,"lon":73.0900,"avg_rating":4.60,"rating_count":65,"completed_jobs":220,"accepted_jobs":230,"cancellations":5,"license_type":"LTV","years_experience":8,"avg_response_time_min":5.5,"is_online":true,"reviews":["Graceful driving.","Safe.","Punctual.","Polite.","Professional."],"job_timestamps":["2025-12-26 18:00:00","2025-12-23 19:00:00","2025-12-16 20:00:00","2025-12-10 21:00:00","2025-12-04 22:00:00"]},
{"driver_id":"AI_2047","name":"Sanam Jung","city":"Faisalabad","lat":31.4500,"lon":73.1200,"avg_rating":4.18,"rating_count":46,"completed_jobs":160,"accepted_jobs":175,"cancellations":9,"license_type":"LTV+HTV","years_experience":5,"avg_response_time_min":10.5,"is_online":true,"reviews":["Good host good driver.","Safe.","On time.","Polite.","Good."],"job_timestamps":["2025-12-25 17:00:00","2025-12-22 18:00:00","2025-12-15 19:00:00","2025-12-09 20:00:00","2025-12-03 21:00:00"]},
{"driver_id":"AI_2048","name":"Maya Ali","city":"Rawalpindi","lat":33.6000,"lon":73.0600,"avg_rating":4.52,"rating_count":63,"completed_jobs":205,"accepted_jobs":215,"cancellations":6,"license_type":"LTV","years_experience":6,"avg_response_time_min":7.2,"is_online":true,"reviews":["Sweet driver.","Safe.","Punctual.","Polite.","Good knowledge."],"job_timestamps":["2025-12-24 16:00:00","2025-12-21 17:00:00","2025-12-14 18:00:00","2025-12-08 19:00:00","2025-12-02 20:00:00"]},
{"driver_id":"AI_2049","name":"Yumna Zaidi","city":"Peshawar","lat":34.0600,"lon":71.5700,"avg_rating":3.90,"rating_count":36,"completed_jobs":125,"accepted_jobs":145,"cancellations":12,"license_type":"HTV","years_experience":4,"avg_response_time_min":13.5,"is_online":false,"reviews":["Average.","Late sometimes.","Driving okay.","Route average.","Fine."],"job_timestamps":["2025-12-23 15:00:00","2025-12-20 16:00:00","2025-12-13 17:00:00","2025-12-07 18:00:00","2025-12-01 19:00:00"]},
{"driver_id":"AI_2050","name":"Kubra Khan","city":"Multan","lat":30.2000,"lon":71.5700,"avg_rating":4.42,"rating_count":55,"completed_jobs":180,"accepted_jobs":190,"cancellations":7,"license_type":"LTV","years_experience":7,"avg_response_time_min":8.5,"is_online":true,"reviews":["Good driver.","Safe.","Punctual.","Polite.","Knowledgeable."],"job_timestamps":["2025-12-22 14:00:00","2025-12-19 15:00:00","2025-12-12 16:00:00","2025-12-06 17:00:00","2025-11-30 18:00:00"]},
{"driver_id":"AI_2051","name":"Hania Aamir","city":"Gujranwala","lat":32.2300,"lon":74.2400,"avg_rating":4.85,"rating_count":105,"completed_jobs":360,"accepted_jobs":370,"cancellations":3,"license_type":"LTV","years_experience":10,"avg_response_time_min":3.3,"is_online":true,"reviews":["Lovely driver.","Excellent.","Safe.","Fast.","Reliable."],"job_timestamps":["2025-12-21 13:00:00","2025-12-18 14:00:00","2025-12-11 15:00:00","2025-12-05 16:00:00","2025-11-29 17:00:00"]},
{"driver_id":"AI_2052","name":"Aiman Khan","city":"Hyderabad","lat":25.4400,"lon":68.4000,"avg_rating":3.05,"rating_count":19,"completed_jobs":88,"accepted_jobs":112,"cancellations":21,"license_type":"PSV","years_experience":3,"avg_response_time_min":21.0,"is_online":false,"reviews":["Below average.","Late.","Rash.","Poor.","Rude."],"job_timestamps":["2025-12-20 12:00:00","2025-12-17 13:00:00","2025-12-10 14:00:00","2025-12-04 15:00:00","2025-11-28 16:00:00"]},
{"driver_id":"AI_2053","name":"Minal Khan","city":"Quetta","lat":30.2200,"lon":67.0200,"avg_rating":4.32,"rating_count":44,"completed_jobs":150,"accepted_jobs":165,"cancellations":8,"license_type":"LTV","years_experience":6,"avg_response_time_min":9.2,"is_online":true,"reviews":["Good.","Safe.","Punctual.","Polite.","Good knowledge."],"job_timestamps":["2025-12-19 11:00:00","2025-12-16 12:00:00","2025-12-09 13:00:00","2025-12-03 14:00:00","2025-11-27 15:00:00"]},
{"driver_id":"AI_2054","name":"Saba Qamar","city":"Karachi","lat":24.9200,"lon":67.0700,"avg_rating":4.98,"rating_count":170,"completed_jobs":500,"accepted_jobs":505,"cancellations":1,"license_type":"LTV","years_experience":14,"avg_response_time_min":2.2,"is_online":true,"reviews":["Queen of driving.","Perfect.","Safe.","Fast.","Best in town."],"job_timestamps":["2025-12-18 10:00:00","2025-12-15 11:00:00","2025-12-08 12:00:00","2025-12-02 13:00:00","2025-11-26 14:00:00"]},
{"driver_id":"AI_2055","name":"Urwa Hocane","city":"Lahore","lat":31.5800,"lon":74.4100,"avg_rating":3.55,"rating_count":26,"completed_jobs":105,"accepted_jobs":125,"cancellations":16,"license_type":"HTV","years_experience":4,"avg_response_time_min":17.0,"is_online":false,"reviews":["Average.","Late.","Okay.","Average.","Fine."],"job_timestamps":["2025-12-17 09:00:00","2025-12-14 10:00:00","2025-12-07 11:00:00","2025-12-01 12:00:00","2025-11-25 13:00:00"]},
{"driver_id":"AI_2056","name":"Mawra Hocane","city":"Islamabad","lat":33.7300,"lon":73.1000,"avg_rating":4.65,"rating_count":68,"completed_jobs":230,"accepted_jobs":240,"cancellations":5,"license_type":"LTV","years_experience":8,"avg_response_time_min":5.3,"is_online":true,"reviews":["Twin power driving.","Safe.","Punctual.","Polite.","Professional."],"job_timestamps":["2025-12-16 08:00:00","2025-12-13 09:00:00","2025-12-06 10:00:00","2025-11-30 11:00:00","2025-11-24 12:00:00"]},
{"driver_id":"AI_2057","name":"Nimra Khan","city":"Faisalabad","lat":31.4600,"lon":73.1300,"avg_rating":4.22,"rating_count":48,"completed_jobs":165,"accepted_jobs":180,"cancellations":9,"license_type":"LTV+HTV","years_experience":5,"avg_response_time_min":10.2,"is_online":true,"reviews":["Good.","Safe.","On time.","Polite.","Good."],"job_timestamps":["2025-12-15 07:00:00","2025-12-12 08:00:00","2025-12-05 09:00:00","2025-11-29 10:00:00","2025-11-23 11:00:00"]},
{"driver_id":"AI_2058","name":"Sarah Khan","city":"Rawalpindi","lat":33.6100,"lon":73.0700,"avg_rating":4.55,"rating_count":66,"completed_jobs":210,"accepted_jobs":220,"cancellations":6,"license_type":"LTV","years_experience":6,"avg_response_time_min":7.0,"is_online":true,"reviews":["Beautiful driving.","Safe.","Punctual.","Polite.","Good knowledge."],"job_timestamps":["2025-12-14 06:00:00","2025-12-11 07:00:00","2025-12-04 08:00:00","2025-11-28 09:00:00","2025-11-22 10:00:00"]},
{"driver_id":"AI_2059","name":"Hira Mani","city":"Peshawar","lat":34.0700,"lon":71.5800,"avg_rating":3.95,"rating_count":38,"completed_jobs":130,"accepted_jobs":150,"cancellations":11,"license_type":"HTV","years_experience":4,"avg_response_time_min":13.0,"is_online":false,"reviews":["Average.","Late sometimes.","Driving okay.","Route average.","Fine."],"job_timestamps":["2025-12-13 05:00:00","2025-12-10 06:00:00","2025-12-03 07:00:00","2025-11-27 08:00:00","2025-11-21 09:00:00"]},
{"driver_id":"AI_2060","name":"Ainy Jaffri","city":"Multan","lat":30.2100,"lon":71.5800,"avg_rating":4.45,"rating_count":58,"completed_jobs":185,"accepted_jobs":195,"cancellations":7,"license_type":"LTV","years_experience":7,"avg_response_time_min":8.0,"is_online":true,"reviews":["Good driver.","Safe.","Punctual.","Polite.","Knowledgeable."],"job_timestamps":["2025-12-12 04:00:00","2025-12-09 05:00:00","2025-12-02 06:00:00","2025-11-26 07:00:00","2025-11-20 08:00:00"]},
{"driver_id":"AI_2061","name":"Sajal Ali","city":"Gujranwala","lat":32.2400,"lon":74.2500,"avg_rating":4.88,"rating_count":110,"completed_jobs":370,"accepted_jobs":380,"cancellations":3,"license_type":"LTV","years_experience":10,"avg_response_time_min":3.1,"is_online":true,"reviews":["Excellent driver.","Superb.","Safe.","Fast.","Reliable."],"job_timestamps":["2025-12-11 03:00:00","2025-12-08 04:00:00","2025-12-01 05:00:00","2025-11-25 06:00:00","2025-11-19 07:00:00"]},
{"driver_id":"AI_2062","name":"Yumna Zaidi","city":"Hyderabad","lat":25.4500,"lon":68.4100,"avg_rating":2.95,"rating_count":17,"completed_jobs":82,"accepted_jobs":105,"cancellations":23,"license_type":"PSV","years_experience":3,"avg_response_time_min":22.0,"is_online":false,"reviews":["Below average.","Late.","Rash.","Poor.","Rude."],"job_timestamps":["2025-12-10 02:00:00","2025-12-07 03:00:00","2025-11-30 04:00:00","2025-11-24 05:00:00","2025-11-18 06:00:00"]},
{"driver_id":"AI_2063","name":"Nadia Khan","city":"Quetta","lat":30.2300,"lon":67.0300,"avg_rating":4.35,"rating_count":46,"completed_jobs":155,"accepted_jobs":170,"cancellations":8,"license_type":"LTV","years_experience":6,"avg_response_time_min":9.0,"is_online":true,"reviews":["Good.","Safe.","Punctual.","Polite.","Good knowledge."],"job_timestamps":["2025-12-09 01:00:00","2025-12-06 02:00:00","2025-11-29 03:00:00","2025-11-23 04:00:00","2025-11-17 05:00:00"]},
{"driver_id":"AI_2064","name":"Bushra Ansari","city":"Karachi","lat":24.9300,"lon":67.0800,"avg_rating":4.99,"rating_count":180,"completed_jobs":500,"accepted_jobs":505,"cancellations":0,"license_type":"LTV","years_experience":15,"avg_response_time_min":2.0,"is_online":true,"reviews":["Legend driver.","Perfect.","Safe.","Fast.","Best ever."],"job_timestamps":["2025-12-08 00:00:00","2025-12-05 01:00:00","2025-11-28 02:00:00","2025-11-22 03:00:00","2025-11-16 04:00:00"]},
{"driver_id":"AI_2065","name":"Sania Saeed","city":"Lahore","lat":31.5900,"lon":74.4200,"avg_rating":3.45,"rating_count":24,"completed_jobs":100,"accepted_jobs":120,"cancellations":17,"license_type":"HTV","years_experience":4,"avg_response_time_min":18.0,"is_online":false,"reviews":["Average.","Late.","Okay.","Average.","Fine."],"job_timestamps":["2025-12-07 23:00:00","2025-12-04 00:00:00","2025-11-27 01:00:00","2025-11-21 02:00:00","2025-11-15 03:00:00"]},
{"driver_id":"AI_2066","name":"Kiran Haq","city":"Islamabad","lat":33.7400,"lon":73.1100,"avg_rating":4.68,"rating_count":72,"completed_jobs":240,"accepted_jobs":250,"cancellations":5,"license_type":"LTV","years_experience":8,"avg_response_time_min":5.0,"is_online":true,"reviews":["Great driving.","Safe.","Punctual.","Polite.","Professional."],"job_timestamps":["2025-12-06 22:00:00","2025-12-03 23:00:00","2025-11-26 00:00:00","2025-11-20 01:00:00","2025-11-14 02:00:00"]},
{"driver_id":"AI_2067","name":"Sohai Ali","city":"Faisalabad","lat":31.4700,"lon":73.1400,"avg_rating":4.25,"rating_count":50,"completed_jobs":170,"accepted_jobs":185,"cancellations":9,"license_type":"LTV+HTV","years_experience":5,"avg_response_time_min":10.0,"is_online":true,"reviews":["Good.","Safe.","On time.","Polite.","Good."],"job_timestamps":["2025-12-05 21:00:00","2025-12-02 22:00:00","2025-11-25 23:00:00","2025-11-19 00:00:00","2025-11-13 01:00:00"]},
{"driver_id":"AI_2068","name":"Mansha Pasha","city":"Rawalpindi","lat":33.6200,"lon":73.0800,"avg_rating":4.58,"rating_count":69,"completed_jobs":215,"accepted_jobs":225,"cancellations":6,"license_type":"LTV","years_experience":6,"avg_response_time_min":6.8,"is_online":true,"reviews":["Good driving.","Safe.","Punctual.","Polite.","Good knowledge."],"job_timestamps":["2025-12-04 20:00:00","2025-12-01 21:00:00","2025-11-24 22:00:00","2025-11-18 23:00:00","2025-11-12 00:00:00"]},
{"driver_id":"AI_2069","name":"Aamina Sheikh","city":"Peshawar","lat":34.0800,"lon":71.5900,"avg_rating":4.00,"rating_count":40,"completed_jobs":135,"accepted_jobs":155,"cancellations":10,"license_type":"HTV","years_experience":4,"avg_response_time_min":12.5,"is_online":false,"reviews":["Average.","Late sometimes.","Driving okay.","Route average.","Fine."],"job_timestamps":["2025-12-03 19:00:00","2025-11-30 20:00:00","2025-11-23 21:00:00","2025-11-17 22:00:00","2025-11-11 23:00:00"]},
{"driver_id":"AI_2070","name":"Iqra Aziz","city":"Multan","lat":30.2200,"lon":71.5900,"avg_rating":4.48,"rating_count":60,"completed_jobs":190,"accepted_jobs":200,"cancellations":7,"license_type":"LTV","years_experience":7,"avg_response_time_min":7.8,"is_online":true,"reviews":["Good driver.","Safe.","Punctual.","Polite.","Knowledgeable."],"job_timestamps":["2025-12-02 18:00:00","2025-11-29 19:00:00","2025-11-22 20:00:00","2025-11-16 21:00:00","2025-11-10 22:00:00"]},
{"driver_id":"AI_2071","name":"Maya Ali","city":"Gujranwala","lat":32.2500,"lon":74.2600,"avg_rating":4.90,"rating_count":115,"completed_jobs":380,"accepted_jobs":390,"cancellations":3,"license_type":"LTV","years_experience":10,"avg_response_time_min":3.0,"is_online":true,"reviews":["Excellent.","Superb.","Safe.","Fast.","Reliable."],"job_timestamps":["2025-12-01 17:00:00","2025-11-28 18:00:00","2025-11-21 19:00:00","2025-11-15 20:00:00","2025-11-09 21:00:00"]},
{"driver_id":"AI_2072","name":"Ushna Shah","city":"Hyderabad","lat":25.4600,"lon":68.4200,"avg_rating":2.85,"rating_count":16,"completed_jobs":78,"accepted_jobs":100,"cancellations":24,"license_type":"PSV","years_experience":3,"avg_response_time_min":23.0,"is_online":false,"reviews":["Below average.","Late.","Rash.","Poor.","Rude."],"job_timestamps":["2025-11-30 16:00:00","2025-11-27 17:00:00","2025-11-20 18:00:00","2025-11-14 19:00:00","2025-11-08 20:00:00"]},
{"driver_id":"AI_2073","name":"Hiba Bukhari","city":"Quetta","lat":30.2400,"lon":67.0400,"avg_rating":4.38,"rating_count":48,"completed_jobs":160,"accepted_jobs":175,"cancellations":8,"license_type":"LTV","years_experience":6,"avg_response_time_min":8.8,"is_online":true,"reviews":["Good.","Safe.","Punctual.","Polite.","Good knowledge."],"job_timestamps":["2025-11-29 15:00:00","2025-11-26 16:00:00","2025-11-19 17:00:00","2025-11-13 18:00:00","2025-11-07 19:00:00"]},
{"driver_id":"AI_2074","name":"Saba Qamar","city":"Karachi","lat":24.9400,"lon":67.0900,"avg_rating":5.00,"rating_count":190,"completed_jobs":500,"accepted_jobs":505,"cancellations":0,"license_type":"LTV","years_experience":16,"avg_response_time_min":1.8,"is_online":true,"reviews":["Perfect driver.","Flawless.","Safe.","Fast.","Best."],"job_timestamps":["2025-11-28 14:00:00","2025-11-25 15:00:00","2025-11-18 16:00:00","2025-11-12 17:00:00","2025-11-06 18:00:00"]},
{"driver_id":"AI_2075","name":"Mahira Khan","city":"Lahore","lat":31.6000,"lon":74.4300,"avg_rating":3.35,"rating_count":22,"completed_jobs":95,"accepted_jobs":115,"cancellations":18,"license_type":"HTV","years_experience":4,"avg_response_time_min":19.0,"is_online":false,"reviews":["Average.","Late.","Okay.","Average.","Fine."],"job_timestamps":["2025-11-27 13:00:00","2025-11-24 14:00:00","2025-11-17 15:00:00","2025-11-11 16:00:00","2025-11-05 17:00:00"]},
{"driver_id":"AI_2076","name":"Yumna Zaidi","city":"Islamabad","lat":33.7500,"lon":73.1200,"avg_rating":4.70,"rating_count":75,"completed_jobs":250,"accepted_jobs":260,"cancellations":5,"license_type":"LTV","years_experience":8,"avg_response_time_min":4.8,"is_online":true,"reviews":["Great.","Safe.","Punctual.","Polite.","Professional."],"job_timestamps":["2025-11-26 12:00:00","2025-11-23 13:00:00","2025-11-16 14:00:00","2025-11-10 15:00:00","2025-11-04 16:00:00"]},
{"driver_id":"AI_2077","name":"Kubra Khan","city":"Faisalabad","lat":31.4800,"lon":73.1500,"avg_rating":4.28,"rating_count":52,"completed_jobs":175,"accepted_jobs":190,"cancellations":9,"license_type":"LTV+HTV","years_experience":5,"avg_response_time_min":9.8,"is_online":true,"reviews":["Good.","Safe.","On time.","Polite.","Good."],"job_timestamps":["2025-11-25 11:00:00","2025-11-22 12:00:00","2025-11-15 13:00:00","2025-11-09 14:00:00","2025-11-03 15:00:00"]},
{"driver_id":"AI_2078","name":"Hania Aamir","city":"Rawalpindi","lat":33.6300,"lon":73.0900,"avg_rating":4.60,"rating_count":70,"completed_jobs":220,"accepted_jobs":230,"cancellations":6,"license_type":"LTV","years_experience":6,"avg_response_time_min":6.5,"is_online":true,"reviews":["Good driving.","Safe.","Punctual.","Polite.","Good knowledge."],"job_timestamps":["2025-11-24 10:00:00","2025-11-21 11:00:00","2025-11-14 12:00:00","2025-11-08 13:00:00","2025-11-02 14:00:00"]},
{"driver_id":"AI_2079","name":"Aiman Khan","city":"Peshawar","lat":34.0900,"lon":71.6000,"avg_rating":4.05,"rating_count":42,"completed_jobs":140,"accepted_jobs":160,"cancellations":10,"license_type":"HTV","years_experience":4,"avg_response_time_min":12.0,"is_online":false,"reviews":["Average.","Late sometimes.","Driving okay.","Route average.","Fine."],"job_timestamps":["2025-11-23 09:00:00","2025-11-20 10:00:00","2025-11-13 11:00:00","2025-11-07 12:00:00","2025-11-01 13:00:00"]},
{"driver_id":"AI_2080","name":"Minal Khan","city":"Multan","lat":30.2300,"lon":71.6000,"avg_rating":4.50,"rating_count":62,"completed_jobs":195,"accepted_jobs":205,"cancellations":7,"license_type":"LTV","years_experience":7,"avg_response_time_min":7.5,"is_online":true,"reviews":["Good driver.","Safe.","Punctual.","Polite.","Knowledgeable."],"job_timestamps":["2025-11-22 08:00:00","2025-11-19 09:00:00","2025-11-12 10:00:00","2025-11-06 11:00:00","2025-10-31 12:00:00"]},
{"driver_id":"AI_2081","name":"Saba Qamar","city":"Gujranwala","lat":32.2600,"lon":74.2700,"avg_rating":4.92,"rating_count":120,"completed_jobs":390,"accepted_jobs":400,"cancellations":3,"license_type":"LTV","years_experience":10,"avg_response_time_min":2.9,"is_online":true,"reviews":["Excellent.","Superb.","Safe.","Fast.","Reliable."],"job_timestamps":["2025-11-21 07:00:00","2025-11-18 08:00:00","2025-11-11 09:00:00","2025-11-05 10:00:00","2025-10-30 11:00:00"]},
{"driver_id":"AI_2082","name":"Urwa Hocane","city":"Hyderabad","lat":25.4700,"lon":68.4300,"avg_rating":2.75,"rating_count":15,"completed_jobs":75,"accepted_jobs":98,"cancellations":25,"license_type":"PSV","years_experience":3,"avg_response_time_min":24.0,"is_online":false,"reviews":["Below average.","Late.","Rash.","Poor.","Rude."],"job_timestamps":["2025-11-20 06:00:00","2025-11-17 07:00:00","2025-11-10 08:00:00","2025-11-04 09:00:00","2025-10-29 10:00:00"]},
{"driver_id":"AI_2083","name":"Mawra Hocane","city":"Quetta","lat":30.2500,"lon":67.0500,"avg_rating":4.40,"rating_count":50,"completed_jobs":165,"accepted_jobs":180,"cancellations":8,"license_type":"LTV","years_experience":6,"avg_response_time_min":8.5,"is_online":true,"reviews":["Good.","Safe.","Punctual.","Polite.","Good knowledge."],"job_timestamps":["2025-11-19 05:00:00","2025-11-16 06:00:00","2025-11-09 07:00:00","2025-11-03 08:00:00","2025-10-28 09:00:00"]},
{"driver_id":"AI_2084","name":"Nimra Khan","city":"Karachi","lat":24.9500,"lon":67.1000,"avg_rating":5.00,"rating_count":200,"completed_jobs":500,"accepted_jobs":505,"cancellations":0,"license_type":"LTV","years_experience":17,"avg_response_time_min":1.5,"is_online":true,"reviews":["Perfect.","Flawless.","Safe.","Fast.","Best."],"job_timestamps":["2025-11-18 04:00:00","2025-11-15 05:00:00","2025-11-08 06:00:00","2025-11-02 07:00:00","2025-10-27 08:00:00"]},
{"driver_id":"AI_2085","name":"Sarah Khan","city":"Lahore","lat":31.6100,"lon":74.4400,"avg_rating":3.25,"rating_count":20,"completed_jobs":90,"accepted_jobs":110,"cancellations":19,"license_type":"HTV","years_experience":4,"avg_response_time_min":20.0,"is_online":false,"reviews":["Average.","Late.","Okay.","Average.","Fine."],"job_timestamps":["2025-11-17 03:00:00","2025-11-14 04:00:00","2025-11-07 05:00:00","2025-11-01 06:00:00","2025-10-26 07:00:00"]},
{"driver_id":"AI_2086","name":"Hira Mani","city":"Islamabad","lat":33.7600,"lon":73.1300,"avg_rating":4.72,"rating_count":78,"completed_jobs":260,"accepted_jobs":270,"cancellations":5,"license_type":"LTV","years_experience":8,"avg_response_time_min":4.5,"is_online":true,"reviews":["Great.","Safe.","Punctual.","Polite.","Professional."],"job_timestamps":["2025-11-16 02:00:00","2025-11-13 03:00:00","2025-11-06 04:00:00","2025-10-31 05:00:00","2025-10-25 06:00:00"]},
{"driver_id":"AI_2087","name":"Ainy Jaffri","city":"Faisalabad","lat":31.4900,"lon":73.1600,"avg_rating":4.30,"rating_count":54,"completed_jobs":180,"accepted_jobs":195,"cancellations":9,"license_type":"LTV+HTV","years_experience":5,"avg_response_time_min":9.5,"is_online":true,"reviews":["Good.","Safe.","On time.","Polite.","Good."],"job_timestamps":["2025-11-15 01:00:00","2025-11-12 02:00:00","2025-11-05 03:00:00","2025-10-30 04:00:00","2025-10-24 05:00:00"]},
{"driver_id":"AI_2088","name":"Sajal Ali","city":"Rawalpindi","lat":33.6400,"lon":73.1000,"avg_rating":4.62,"rating_count":72,"completed_jobs":225,"accepted_jobs":235,"cancellations":6,"license_type":"LTV","years_experience":6,"avg_response_time_min":6.2,"is_online":true,"reviews":["Good driving.","Safe.","Punctual.","Polite.","Good knowledge."],"job_timestamps":["2025-11-14 00:00:00","2025-11-11 01:00:00","2025-11-04 02:00:00","2025-10-29 03:00:00","2025-10-23 04:00:00"]},
{"driver_id":"AI_2089","name":"Yumna Zaidi","city":"Peshawar","lat":34.1000,"lon":71.6100,"avg_rating":4.10,"rating_count":44,"completed_jobs":145,"accepted_jobs":165,"cancellations":10,"license_type":"HTV","years_experience":4,"avg_response_time_min":11.5,"is_online":false,"reviews":["Average.","Late sometimes.","Driving okay.","Route average.","Fine."],"job_timestamps":["2025-11-13 23:00:00","2025-11-10 00:00:00","2025-11-03 01:00:00","2025-10-28 02:00:00","2025-10-22 03:00:00"]},
{"driver_id":"AI_2090","name":"Nadia Khan","city":"Multan","lat":30.2400,"lon":71.6100,"avg_rating":4.52,"rating_count":64,"completed_jobs":200,"accepted_jobs":210,"cancellations":7,"license_type":"LTV","years_experience":7,"avg_response_time_min":7.2,"is_online":true,"reviews":["Good driver.","Safe.","Punctual.","Polite.","Knowledgeable."],"job_timestamps":["2025-11-12 22:00:00","2025-11-09 23:00:00","2025-11-02 00:00:00","2025-10-27 01:00:00","2025-10-21 02:00:00"]},
{"driver_id":"AI_2091","name":"Bushra Ansari","city":"Gujranwala","lat":32.2700,"lon":74.2800,"avg_rating":4.94,"rating_count":125,"completed_jobs":400,"accepted_jobs":410,"cancellations":3,"license_type":"LTV","years_experience":10,"avg_response_time_min":2.8,"is_online":true,"reviews":["Excellent.","Superb.","Safe.","Fast.","Reliable."],"job_timestamps":["2025-11-11 21:00:00","2025-11-08 22:00:00","2025-11-01 23:00:00","2025-10-26 00:00:00","2025-10-20 01:00:00"]},
{"driver_id":"AI_2092","name":"Sania Saeed","city":"Hyderabad","lat":25.4800,"lon":68.4400,"avg_rating":2.65,"rating_count":14,"completed_jobs":72,"accepted_jobs":95,"cancellations":26,"license_type":"PSV","years_experience":3,"avg_response_time_min":25.0,"is_online":false,"reviews":["Below average.","Late.","Rash.","Poor.","Rude."],"job_timestamps":["2025-11-10 20:00:00","2025-11-07 21:00:00","2025-10-31 22:00:00","2025-10-25 23:00:00","2025-10-19 00:00:00"]},
{"driver_id":"AI_2093","name":"Kiran Haq","city":"Quetta","lat":30.2600,"lon":67.0600,"avg_rating":4.42,"rating_count":52,"completed_jobs":170,"accepted_jobs":185,"cancellations":8,"license_type":"LTV","years_experience":6,"avg_response_time_min":8.2,"is_online":true,"reviews":["Good.","Safe.","Punctual.","Polite.","Good knowledge."],"job_timestamps":["2025-11-09 19:00:00","2025-11-06 20:00:00","2025-10-30 21:00:00","2025-10-24 22:00:00","2025-10-18 23:00:00"]},
{"driver_id":"AI_2094","name":"Sohai Ali","city":"Karachi","lat":24.9600,"lon":67.1100,"avg_rating":5.00,"rating_count":210,"completed_jobs":500,"accepted_jobs":505,"cancellations":0,"license_type":"LTV","years_experience":18,"avg_response_time_min":1.2,"is_online":true,"reviews":["Perfect.","Flawless.","Safe.","Fast.","Best."],"job_timestamps":["2025-11-08 18:00:00","2025-11-05 19:00:00","2025-10-29 20:00:00","2025-10-23 21:00:00","2025-10-17 22:00:00"]},
{"driver_id":"AI_2095","name":"Mansha Pasha","city":"Lahore","lat":31.6200,"lon":74.4500,"avg_rating":3.15,"rating_count":18,"completed_jobs":85,"accepted_jobs":105,"cancellations":20,"license_type":"HTV","years_experience":4,"avg_response_time_min":21.0,"is_online":false,"reviews":["Average.","Late.","Okay.","Average.","Fine."],"job_timestamps":["2025-11-07 17:00:00","2025-11-04 18:00:00","2025-10-28 19:00:00","2025-10-22 20:00:00","2025-10-16 21:00:00"]},
{"driver_id":"AI_2096","name":"Aamina Sheikh","city":"Islamabad","lat":33.7700,"lon":73.1400,"avg_rating":4.75,"rating_count":80,"completed_jobs":270,"accepted_jobs":280,"cancellations":5,"license_type":"LTV","years_experience":8,"avg_response_time_min":4.2,"is_online":true,"reviews":["Great.","Safe.","Punctual.","Polite.","Professional."],"job_timestamps":["2025-11-06 16:00:00","2025-11-03 17:00:00","2025-10-27 18:00:00","2025-10-21 19:00:00","2025-10-15 20:00:00"]},
{"driver_id":"AI_2097","name":"Iqra Aziz","city":"Faisalabad","lat":31.5000,"lon":73.1700,"avg_rating":4.32,"rating_count":56,"completed_jobs":185,"accepted_jobs":200,"cancellations":9,"license_type":"LTV+HTV","years_experience":5,"avg_response_time_min":9.2,"is_online":true,"reviews":["Good.","Safe.","On time.","Polite.","Good."],"job_timestamps":["2025-11-05 15:00:00","2025-11-02 16:00:00","2025-10-26 17:00:00","2025-10-20 18:00:00","2025-10-14 19:00:00"]},
{"driver_id":"AI_2098","name":"Maya Ali","city":"Rawalpindi","lat":33.6500,"lon":73.1100,"avg_rating":4.65,"rating_count":74,"completed_jobs":230,"accepted_jobs":240,"cancellations":6,"license_type":"LTV","years_experience":6,"avg_response_time_min":6.0,"is_online":true,"reviews":["Good driving.","Safe.","Punctual.","Polite.","Good knowledge."],"job_timestamps":["2025-11-04 14:00:00","2025-11-01 15:00:00","2025-10-25 16:00:00","2025-10-19 17:00:00","2025-10-13 18:00:00"]},
{"driver_id":"AI_2099","name":"Ushna Shah","city":"Peshawar","lat":34.1100,"lon":71.6200,"avg_rating":4.15,"rating_count":46,"completed_jobs":150,"accepted_jobs":170,"cancellations":10,"license_type":"HTV","years_experience":4,"avg_response_time_min":11.0,"is_online":false,"reviews":["Average.","Late sometimes.","Driving okay.","Route average.","Fine."],"job_timestamps":["2025-11-03 13:00:00","2025-10-31 14:00:00","2025-10-24 15:00:00","2025-10-18 16:00:00","2025-10-12 17:00:00"]},
{"driver_id":"AI_2100","name":"Hiba Bukhari","city":"Multan","lat":30.2500,"lon":71.6200,"avg_rating":4.55,"rating_count":66,"completed_jobs":205,"accepted_jobs":215,"cancellations":7,"license_type":"LTV","years_experience":7,"avg_response_time_min":7.0,"is_online":true,"reviews":["Good driver.","Safe.","Punctual.","Polite.","Knowledgeable."],"job_timestamps":["2025-11-02 12:00:00","2025-10-30 13:00:00","2025-10-23 14:00:00","2025-10-17 15:00:00","2025-10-11 16:00:00"]},
{"driver_id":"AI_2101","name":"Adnan Siddiqui","city":"Gujranwala","lat":32.2800,"lon":74.2900,"avg_rating":4.96,"rating_count":130,"completed_jobs":410,"accepted_jobs":420,"cancellations":3,"license_type":"LTV","years_experience":10,"avg_response_time_min":2.7,"is_online":true,"reviews":["Excellent.","Superb.","Safe.","Fast.","Reliable."],"job_timestamps":["2025-11-01 11:00:00","2025-10-29 12:00:00","2025-10-22 13:00:00","2025-10-16 14:00:00","2025-10-10 15:00:00"]},
{"driver_id":"AI_2102","name":"Fahad Mustafa","city":"Hyderabad","lat":25.4900,"lon":68.4500,"avg_rating":2.55,"rating_count":13,"completed_jobs":70,"accepted_jobs":92,"cancellations":27,"license_type":"PSV","years_experience":3,"avg_response_time_min":26.0,"is_online":false,"reviews":["Below average.","Late.","Rash.","Poor.","Rude."],"job_timestamps":["2025-10-31 10:00:00","2025-10-28 11:00:00","2025-10-21 12:00:00","2025-10-15 13:00:00","2025-10-09 14:00:00"]},
{"driver_id":"AI_2103","name":"Noman Ijaz","city":"Quetta","lat":30.2700,"lon":67.0700,"avg_rating":4.45,"rating_count":54,"completed_jobs":175,"accepted_jobs":190,"cancellations":8,"license_type":"LTV","years_experience":6,"avg_response_time_min":8.0,"is_online":true,"reviews":["Good.","Safe.","Punctual.","Polite.","Good knowledge."],"job_timestamps":["2025-10-30 09:00:00","2025-10-27 10:00:00","2025-10-20 11:00:00","2025-10-14 12:00:00","2025-10-08 13:00:00"]},
{"driver_id":"AI_2104","name":"Ahsan Khan","city":"Karachi","lat":24.9700,"lon":67.1200,"avg_rating":5.00,"rating_count":220,"completed_jobs":500,"accepted_jobs":505,"cancellations":0,"license_type":"LTV","years_experience":19,"avg_response_time_min":1.0,"is_online":true,"reviews":["Perfect.","Flawless.","Safe.","Fast.","Best."],"job_timestamps":["2025-10-29 08:00:00","2025-10-26 09:00:00","2025-10-19 10:00:00","2025-10-13 11:00:00","2025-10-07 12:00:00"]},
{"driver_id":"AI_2105","name":"Hamza Ali","city":"Lahore","lat":31.6300,"lon":74.4600,"avg_rating":3.05,"rating_count":16,"completed_jobs":80,"accepted_jobs":100,"cancellations":21,"license_type":"HTV","years_experience":4,"avg_response_time_min":22.0,"is_online":false,"reviews":["Average.","Late.","Okay.","Average.","Fine."],"job_timestamps":["2025-10-28 07:00:00","2025-10-25 08:00:00","2025-10-18 09:00:00","2025-10-12 10:00:00","2025-10-06 11:00:00"]},
{"driver_id":"AI_2106","name":"Farhan Saeed","city":"Islamabad","lat":33.7800,"lon":73.1500,"avg_rating":4.78,"rating_count":82,"completed_jobs":280,"accepted_jobs":290,"cancellations":5,"license_type":"LTV","years_experience":8,"avg_response_time_min":4.0,"is_online":true,"reviews":["Great.","Safe.","Punctual.","Polite.","Professional."],"job_timestamps":["2025-10-27 06:00:00","2025-10-24 07:00:00","2025-10-17 08:00:00","2025-10-11 09:00:00","2025-10-05 10:00:00"]},
{"driver_id":"AI_2107","name":"Ali Zafar","city":"Faisalabad","lat":31.5100,"lon":73.1800,"avg_rating":4.35,"rating_count":58,"completed_jobs":190,"accepted_jobs":205,"cancellations":9,"license_type":"LTV+HTV","years_experience":5,"avg_response_time_min":9.0,"is_online":true,"reviews":["Good.","Safe.","On time.","Polite.","Good."],"job_timestamps":["2025-10-26 05:00:00","2025-10-23 06:00:00","2025-10-16 07:00:00","2025-10-10 08:00:00","2025-10-04 09:00:00"]},
{"driver_id":"AI_2108","name":"Atif Aslam","city":"Rawalpindi","lat":33.6600,"lon":73.1200,"avg_rating":4.68,"rating_count":76,"completed_jobs":235,"accepted_jobs":245,"cancellations":6,"license_type":"LTV","years_experience":6,"avg_response_time_min":5.8,"is_online":true,"reviews":["Good driving.","Safe.","Punctual.","Polite.","Good knowledge."],"job_timestamps":["2025-10-25 04:00:00","2025-10-22 05:00:00","2025-10-15 06:00:00","2025-10-09 07:00:00","2025-10-03 08:00:00"]},
{"driver_id":"AI_2109","name":"Adnan Samad","city":"Peshawar","lat":34.1200,"lon":71.6300,"avg_rating":4.20,"rating_count":48,"completed_jobs":155,"accepted_jobs":175,"cancellations":10,"license_type":"HTV","years_experience":4,"avg_response_time_min":10.5,"is_online":false,"reviews":["Average.","Late sometimes.","Driving okay.","Route average.","Fine."],"job_timestamps":["2025-10-24 03:00:00","2025-10-21 04:00:00","2025-10-14 05:00:00","2025-10-08 06:00:00","2025-10-02 07:00:00"]},
{"driver_id":"AI_2110","name":"Umar Akmal","city":"Multan","lat":30.2600,"lon":71.6300,"avg_rating":4.58,"rating_count":68,"completed_jobs":210,"accepted_jobs":220,"cancellations":7,"license_type":"LTV","years_experience":7,"avg_response_time_min":6.8,"is_online":true,"reviews":["Good driver.","Safe.","Punctual.","Polite.","Knowledgeable."],"job_timestamps":["2025-10-23 02:00:00","2025-10-20 03:00:00","2025-10-13 04:00:00","2025-10-07 05:00:00","2025-10-01 06:00:00"]},
{"driver_id":"AI_2111","name":"Junaid Khan","city":"Gujranwala","lat":32.2900,"lon":74.3000,"avg_rating":4.98,"rating_count":135,"completed_jobs":420,"accepted_jobs":430,"cancellations":3,"license_type":"LTV","years_experience":10,"avg_response_time_min":2.6,"is_online":true,"reviews":["Excellent.","Superb.","Safe.","Fast.","Reliable."],"job_timestamps":["2025-10-22 01:00:00","2025-10-19 02:00:00","2025-10-12 03:00:00","2025-10-06 04:00:00","2025-09-30 05:00:00"]},
{"driver_id":"AI_2112","name":"Wahab Riaz","city":"Hyderabad","lat":25.5000,"lon":68.4600,"avg_rating":2.45,"rating_count":12,"completed_jobs":68,"accepted_jobs":90,"cancellations":28,"license_type":"PSV","years_experience":3,"avg_response_time_min":27.0,"is_online":false,"reviews":["Below average.","Late.","Rash.","Poor.","Rude."],"job_timestamps":["2025-10-21 00:00:00","2025-10-18 01:00:00","2025-10-11 02:00:00","2025-10-05 03:00:00","2025-09-29 04:00:00"]},
{"driver_id":"AI_2113","name":"Imad Wasim","city":"Quetta","lat":30.2800,"lon":67.0800,"avg_rating":4.48,"rating_count":56,"completed_jobs":180,"accepted_jobs":195,"cancellations":8,"license_type":"LTV","years_experience":6,"avg_response_time_min":7.8,"is_online":true,"reviews":["Good.","Safe.","Punctual.","Polite.","Good knowledge."],"job_timestamps":["2025-10-20 23:00:00","2025-10-17 00:00:00","2025-10-10 01:00:00","2025-10-04 02:00:00","2025-09-28 03:00:00"]},
{"driver_id":"AI_2114","name":"Shadab Khan","city":"Karachi","lat":24.9800,"lon":67.1300,"avg_rating":5.00,"rating_count":230,"completed_jobs":500,"accepted_jobs":505,"cancellations":0,"license_type":"LTV","years_experience":20,"avg_response_time_min":0.8,"is_online":true,"reviews":["Perfect.","Flawless.","Safe.","Fast.","Best."],"job_timestamps":["2025-10-19 22:00:00","2025-10-16 23:00:00","2025-10-09 00:00:00","2025-10-03 01:00:00","2025-09-27 02:00:00"]},
{"driver_id":"AI_2115","name":"Sarfaraz Ahmed","city":"Lahore","lat":31.6400,"lon":74.4700,"avg_rating":2.95,"rating_count":14,"completed_jobs":75,"accepted_jobs":95,"cancellations":22,"license_type":"HTV","years_experience":4,"avg_response_time_min":23.0,"is_online":false,"reviews":["Average.","Late.","Okay.","Average.","Fine."],"job_timestamps":["2025-10-18 21:00:00","2025-10-15 22:00:00","2025-10-08 23:00:00","2025-10-02 00:00:00","2025-09-26 01:00:00"]},
{"driver_id":"AI_2116","name":"Mohammad Rizwan","city":"Islamabad","lat":33.7900,"lon":73.1600,"avg_rating":4.80,"rating_count":84,"completed_jobs":290,"accepted_jobs":300,"cancellations":5,"license_type":"LTV","years_experience":8,"avg_response_time_min":3.8,"is_online":true,"reviews":["Great.","Safe.","Punctual.","Polite.","Professional."],"job_timestamps":["2025-10-17 20:00:00","2025-10-14 21:00:00","2025-10-07 22:00:00","2025-10-01 23:00:00","2025-09-25 00:00:00"]},
{"driver_id":"AI_2117","name":"Hasan Ali","city":"Faisalabad","lat":31.5200,"lon":73.1900,"avg_rating":4.38,"rating_count":60,"completed_jobs":195,"accepted_jobs":210,"cancellations":9,"license_type":"LTV+HTV","years_experience":5,"avg_response_time_min":8.8,"is_online":true,"reviews":["Good.","Safe.","On time.","Polite.","Good."],"job_timestamps":["2025-10-16 19:00:00","2025-10-13 20:00:00","2025-10-06 21:00:00","2025-09-30 22:00:00","2025-09-24 23:00:00"]},
{"driver_id":"AI_2118","name":"Shaheen Afridi","city":"Rawalpindi","lat":33.6700,"lon":73.1300,"avg_rating":4.70,"rating_count":78,"completed_jobs":240,"accepted_jobs":250,"cancellations":6,"license_type":"LTV","years_experience":6,"avg_response_time_min":5.5,"is_online":true,"reviews":["Good driving.","Safe.","Punctual.","Polite.","Good knowledge."],"job_timestamps":["2025-10-15 18:00:00","2025-10-12 19:00:00","2025-10-05 20:00:00","2025-09-29 21:00:00","2025-09-23 22:00:00"]},
{"driver_id":"AI_2119","name":"Fakhar Zaman","city":"Peshawar","lat":34.1300,"lon":71.6400,"avg_rating":4.25,"rating_count":50,"completed_jobs":160,"accepted_jobs":180,"cancellations":10,"license_type":"HTV","years_experience":4,"avg_response_time_min":10.0,"is_online":false,"reviews":["Average.","Late sometimes.","Driving okay.","Route average.","Fine."],"job_timestamps":["2025-10-14 17:00:00","2025-10-11 18:00:00","2025-10-04 19:00:00","2025-09-28 20:00:00","2025-09-22 21:00:00"]},
{"driver_id":"AI_2120","name":"Babar Azam","city":"Multan","lat":30.2700,"lon":71.6400,"avg_rating":4.60,"rating_count":70,"completed_jobs":215,"accepted_jobs":225,"cancellations":7,"license_type":"LTV","years_experience":7,"avg_response_time_min":6.5,"is_online":true,"reviews":["Good driver.","Safe.","Punctual.","Polite.","Knowledgeable."],"job_timestamps":["2025-10-13 16:00:00","2025-10-10 17:00:00","2025-10-03 18:00:00","2025-09-27 19:00:00","2025-09-21 20:00:00"]},
{"driver_id":"AI_2121","name":"Iftikhar Ahmed","city":"Gujranwala","lat":32.3000,"lon":74.3100,"avg_rating":5.00,"rating_count":140,"completed_jobs":430,"accepted_jobs":440,"cancellations":3,"license_type":"LTV","years_experience":10,"avg_response_time_min":2.5,"is_online":true,"reviews":["Excellent.","Superb.","Safe.","Fast.","Reliable."],"job_timestamps":["2025-10-12 15:00:00","2025-10-09 16:00:00","2025-10-02 17:00:00","2025-09-26 18:00:00","2025-09-20 19:00:00"]},
{"driver_id":"AI_2122","name":"Misbah Ul Haq","city":"Hyderabad","lat":25.5100,"lon":68.4700,"avg_rating":2.35,"rating_count":11,"completed_jobs":65,"accepted_jobs":88,"cancellations":29,"license_type":"PSV","years_experience":3,"avg_response_time_min":28.0,"is_online":false,"reviews":["Below average.","Late.","Rash.","Poor.","Rude."],"job_timestamps":["2025-10-11 14:00:00","2025-10-08 15:00:00","2025-10-01 16:00:00","2025-09-25 17:00:00","2025-09-19 18:00:00"]},
{"driver_id":"AI_2123","name":"Danish Kaneria","city":"Quetta","lat":30.2900,"lon":67.0900,"avg_rating":4.50,"rating_count":58,"completed_jobs":185,"accepted_jobs":200,"cancellations":8,"license_type":"LTV","years_experience":6,"avg_response_time_min":7.5,"is_online":true,"reviews":["Good.","Safe.","Punctual.","Polite.","Good knowledge."],"job_timestamps":["2025-10-10 13:00:00","2025-10-07 14:00:00","2025-09-30 15:00:00","2025-09-24 16:00:00","2025-09-18 17:00:00"]},
{"driver_id":"AI_2124","name":"Shoaib Akhtar","city":"Karachi","lat":24.9900,"lon":67.1400,"avg_rating":5.00,"rating_count":240,"completed_jobs":500,"accepted_jobs":505,"cancellations":0,"license_type":"LTV","years_experience":20,"avg_response_time_min":0.5,"is_online":true,"reviews":["Perfect.","Flawless.","Safe.","Fast.","Best."],"job_timestamps":["2025-10-09 12:00:00","2025-10-06 13:00:00","2025-09-29 14:00:00","2025-09-23 15:00:00","2025-09-17 16:00:00"]},
{"driver_id":"AI_2125","name":"Inzamam Haq","city":"Lahore","lat":31.6500,"lon":74.4800,"avg_rating":2.85,"rating_count":12,"completed_jobs":70,"accepted_jobs":90,"cancellations":23,"license_type":"HTV","years_experience":4,"avg_response_time_min":24.0,"is_online":false,"reviews":["Average.","Late.","Okay.","Average.","Fine."],"job_timestamps":["2025-10-08 11:00:00","2025-10-05 12:00:00","2025-09-28 13:00:00","2025-09-22 14:00:00","2025-09-16 15:00:00"]},
{"driver_id":"AI_2126","name":"Waqar Younis","city":"Islamabad","lat":33.8000,"lon":73.1700,"avg_rating":4.82,"rating_count":86,"completed_jobs":300,"accepted_jobs":310,"cancellations":5,"license_type":"LTV","years_experience":8,"avg_response_time_min":3.5,"is_online":true,"reviews":["Great.","Safe.","Punctual.","Polite.","Professional."],"job_timestamps":["2025-10-07 10:00:00","2025-10-04 11:00:00","2025-09-27 12:00:00","2025-09-21 13:00:00","2025-09-15 14:00:00"]},
{"driver_id":"AI_2127","name":"Saeed Anwar","city":"Faisalabad","lat":31.5300,"lon":73.2000,"avg_rating":4.40,"rating_count":62,"completed_jobs":200,"accepted_jobs":215,"cancellations":9,"license_type":"LTV+HTV","years_experience":5,"avg_response_time_min":8.5,"is_online":true,"reviews":["Good.","Safe.","On time.","Polite.","Good."],"job_timestamps":["2025-10-06 09:00:00","2025-10-03 10:00:00","2025-09-26 11:00:00","2025-09-20 12:00:00","2025-09-14 13:00:00"]},
{"driver_id":"AI_2128","name":"Rashid Latif","city":"Rawalpindi","lat":33.6800,"lon":73.1400,"avg_rating":4.72,"rating_count":80,"completed_jobs":245,"accepted_jobs":255,"cancellations":6,"license_type":"LTV","years_experience":6,"avg_response_time_min":5.2,"is_online":true,"reviews":["Good driving.","Safe.","Punctual.","Polite.","Good knowledge."],"job_timestamps":["2025-10-05 08:00:00","2025-10-02 09:00:00","2025-09-25 10:00:00","2025-09-19 11:00:00","2025-09-13 12:00:00"]},
{"driver_id":"AI_2129","name":"Kamran Akmal","city":"Peshawar","lat":34.1400,"lon":71.6500,"avg_rating":4.30,"rating_count":52,"completed_jobs":165,"accepted_jobs":185,"cancellations":10,"license_type":"HTV","years_experience":4,"avg_response_time_min":9.5,"is_online":false,"reviews":["Average.","Late sometimes.","Driving okay.","Route average.","Fine."],"job_timestamps":["2025-10-04 07:00:00","2025-10-01 08:00:00","2025-09-24 09:00:00","2025-09-18 10:00:00","2025-09-12 11:00:00"]},
{"driver_id":"AI_2130","name":"Naveed Hussain","city":"Multan","lat":30.2800,"lon":71.6500,"avg_rating":4.62,"rating_count":72,"completed_jobs":220,"accepted_jobs":230,"cancellations":7,"license_type":"LTV","years_experience":7,"avg_response_time_min":6.2,"is_online":true,"reviews":["Good driver.","Safe.","Punctual.","Polite.","Knowledgeable."],"job_timestamps":["2025-10-03 06:00:00","2025-09-30 07:00:00","2025-09-23 08:00:00","2025-09-17 09:00:00","2025-09-11 10:00:00"]},
{"driver_id":"AI_2131","name":"Shahid Iqbal","city":"Gujranwala","lat":32.3100,"lon":74.3200,"avg_rating":5.00,"rating_count":145,"completed_jobs":440,"accepted_jobs":450,"cancellations":3,"license_type":"LTV","years_experience":10,"avg_response_time_min":2.4,"is_online":true,"reviews":["Excellent.","Superb.","Safe.","Fast.","Reliable."],"job_timestamps":["2025-10-02 05:00:00","2025-09-29 06:00:00","2025-09-22 07:00:00","2025-09-16 08:00:00","2025-09-10 09:00:00"]},
{"driver_id":"AI_2132","name":"Tariq Mahmood","city":"Hyderabad","lat":25.5200,"lon":68.4800,"avg_rating":2.25,"rating_count":10,"completed_jobs":62,"accepted_jobs":85,"cancellations":30,"license_type":"PSV","years_experience":3,"avg_response_time_min":29.0,"is_online":false,"reviews":["Below average.","Late.","Rash.","Poor.","Rude."],"job_timestamps":["2025-10-01 04:00:00","2025-09-28 05:00:00","2025-09-21 06:00:00","2025-09-15 07:00:00","2025-09-09 08:00:00"]},
{"driver_id":"AI_2133","name":"Zubair Ahmed","city":"Quetta","lat":30.3000,"lon":67.1000,"avg_rating":4.52,"rating_count":60,"completed_jobs":190,"accepted_jobs":205,"cancellations":8,"license_type":"LTV","years_experience":6,"avg_response_time_min":7.2,"is_online":true,"reviews":["Good.","Safe.","Punctual.","Polite.","Good knowledge."],"job_timestamps":["2025-09-30 03:00:00","2025-09-27 04:00:00","2025-09-20 05:00:00","2025-09-14 06:00:00","2025-09-08 07:00:00"]},
{"driver_id":"AI_2134","name":"Imran Ali","city":"Karachi","lat":25.0000,"lon":67.1500,"avg_rating":5.00,"rating_count":250,"completed_jobs":500,"accepted_jobs":505,"cancellations":0,"license_type":"LTV","years_experience":20,"avg_response_time_min":0.2,"is_online":true,"reviews":["Perfect.","Flawless.","Safe.","Fast.","Best."],"job_timestamps":["2025-09-29 02:00:00","2025-09-26 03:00:00","2025-09-19 04:00:00","2025-09-13 05:00:00","2025-09-07 06:00:00"]},
{"driver_id":"AI_2135","name":"Faisal Qureshi","city":"Lahore","lat":31.6600,"lon":74.4900,"avg_rating":2.75,"rating_count":10,"completed_jobs":65,"accepted_jobs":85,"cancellations":24,"license_type":"HTV","years_experience":4,"avg_response_time_min":25.0,"is_online":false,"reviews":["Average.","Late.","Okay.","Average.","Fine."],"job_timestamps":["2025-09-28 01:00:00","2025-09-25 02:00:00","2025-09-18 03:00:00","2025-09-12 04:00:00","2025-09-06 05:00:00"]},
{"driver_id":"AI_2136","name":"Hassan Raza","city":"Islamabad","lat":33.8100,"lon":73.1800,"avg_rating":4.85,"rating_count":88,"completed_jobs":310,"accepted_jobs":320,"cancellations":5,"license_type":"LTV","years_experience":8,"avg_response_time_min":3.2,"is_online":true,"reviews":["Great.","Safe.","Punctual.","Polite.","Professional."],"job_timestamps":["2025-09-27 00:00:00","2025-09-24 01:00:00","2025-09-17 02:00:00","2025-09-11 03:00:00","2025-09-05 04:00:00"]},
{"driver_id":"AI_2137","name":"Usman Malik","city":"Faisalabad","lat":31.5400,"lon":73.2100,"avg_rating":4.42,"rating_count":64,"completed_jobs":205,"accepted_jobs":220,"cancellations":9,"license_type":"LTV+HTV","years_experience":5,"avg_response_time_min":8.2,"is_online":true,"reviews":["Good.","Safe.","On time.","Polite.","Good."],"job_timestamps":["2025-09-26 23:00:00","2025-09-23 00:00:00","2025-09-16 01:00:00","2025-09-10 02:00:00","2025-09-04 03:00:00"]},
{"driver_id":"AI_2138","name":"Ahmed Khan","city":"Rawalpindi","lat":33.6900,"lon":73.1500,"avg_rating":4.75,"rating_count":82,"completed_jobs":250,"accepted_jobs":260,"cancellations":6,"license_type":"LTV","years_experience":6,"avg_response_time_min":5.0,"is_online":true,"reviews":["Good driving.","Safe.","Punctual.","Polite.","Good knowledge."],"job_timestamps":["2025-09-25 22:00:00","2025-09-22 23:00:00","2025-09-15 00:00:00","2025-09-09 01:00:00","2025-09-03 02:00:00"]},
{"driver_id":"AI_2139","name":"Bilal Chaudhry","city":"Peshawar","lat":34.1500,"lon":71.6600,"avg_rating":4.35,"rating_count":54,"completed_jobs":170,"accepted_jobs":190,"cancellations":10,"license_type":"HTV","years_experience":4,"avg_response_time_min":9.0,"is_online":false,"reviews":["Average.","Late sometimes.","Driving okay.","Route average.","Fine."],"job_timestamps":["2025-09-24 21:00:00","2025-09-21 22:00:00","2025-09-14 23:00:00","2025-09-08 00:00:00","2025-09-02 01:00:00"]},
{"driver_id":"AI_2140","name":"Ali Hassan","city":"Multan","lat":30.2900,"lon":71.6600,"avg_rating":4.65,"rating_count":74,"completed_jobs":225,"accepted_jobs":235,"cancellations":7,"license_type":"LTV","years_experience":7,"avg_response_time_min":6.0,"is_online":true,"reviews":["Good driver.","Safe.","Punctual.","Polite.","Knowledgeable."],"job_timestamps":["2025-09-23 20:00:00","2025-09-20 21:00:00","2025-09-13 22:00:00","2025-09-07 23:00:00","2025-09-01 00:00:00"]},
{"driver_id":"AI_2141","name":"Zain Malik","city":"Gujranwala","lat":32.3200,"lon":74.3300,"avg_rating":5.00,"rating_count":150,"completed_jobs":450,"accepted_jobs":460,"cancellations":3,"license_type":"LTV","years_experience":10,"avg_response_time_min":2.3,"is_online":true,"reviews":["Excellent.","Superb.","Safe.","Fast.","Reliable."],"job_timestamps":["2025-09-22 19:00:00","2025-09-19 20:00:00","2025-09-12 21:00:00","2025-09-06 22:00:00","2025-08-31 23:00:00"]},
{"driver_id":"AI_2142","name":"Omer Shahzad","city":"Hyderabad","lat":25.5300,"lon":68.4900,"avg_rating":2.15,"rating_count":9,"completed_jobs":60,"accepted_jobs":82,"cancellations":31,"license_type":"PSV","years_experience":3,"avg_response_time_min":30.0,"is_online":false,"reviews":["Below average.","Late.","Rash.","Poor.","Rude."],"job_timestamps":["2025-09-21 18:00:00","2025-09-18 19:00:00","2025-09-11 20:00:00","2025-09-05 21:00:00","2025-08-30 22:00:00"]},
{"driver_id":"AI_2143","name":"Rizwan Ahmed","city":"Quetta","lat":30.3100,"lon":67.1100,"avg_rating":4.55,"rating_count":62,"completed_jobs":195,"accepted_jobs":210,"cancellations":8,"license_type":"LTV","years_experience":6,"avg_response_time_min":7.0,"is_online":true,"reviews":["Good.","Safe.","Punctual.","Polite.","Good knowledge."],"job_timestamps":["2025-09-20 17:00:00","2025-09-17 18:00:00","2025-09-10 19:00:00","2025-09-04 20:00:00","2025-08-29 21:00:00"]},
{"driver_id":"AI_2144","name":"Kashif Mahmood","city":"Karachi","lat":25.0100,"lon":67.1600,"avg_rating":5.00,"rating_count":260,"completed_jobs":500,"accepted_jobs":505,"cancellations":0,"license_type":"LTV","years_experience":20,"avg_response_time_min":0.1,"is_online":true,"reviews":["Perfect.","Flawless.","Safe.","Fast.","Best."],"job_timestamps":["2025-09-19 16:00:00","2025-09-16 17:00:00","2025-09-09 18:00:00","2025-09-03 19:00:00","2025-08-28 20:00:00"]},
{"driver_id":"AI_2145","name":"Naeem Khan","city":"Lahore","lat":31.6700,"lon":74.5000,"avg_rating":2.65,"rating_count":8,"completed_jobs":60,"accepted_jobs":80,"cancellations":25,"license_type":"HTV","years_experience":4,"avg_response_time_min":26.0,"is_online":false,"reviews":["Average.","Late.","Okay.","Average.","Fine."],"job_timestamps":["2025-09-18 15:00:00","2025-09-15 16:00:00","2025-09-08 17:00:00","2025-09-02 18:00:00","2025-08-27 19:00:00"]},
{"driver_id":"AI_2146","name":"Tahir Hussain","city":"Islamabad","lat":33.8200,"lon":73.1900,"avg_rating":4.88,"rating_count":90,"completed_jobs":320,"accepted_jobs":330,"cancellations":5,"license_type":"LTV","years_experience":8,"avg_response_time_min":3.0,"is_online":true,"reviews":["Great.","Safe.","Punctual.","Polite.","Professional."],"job_timestamps":["2025-09-17 14:00:00","2025-09-14 15:00:00","2025-09-07 16:00:00","2025-09-01 17:00:00","2025-08-26 18:00:00"]},
{"driver_id":"AI_2147","name":"Asad Rauf","city":"Faisalabad","lat":31.5500,"lon":73.2200,"avg_rating":4.45,"rating_count":66,"completed_jobs":210,"accepted_jobs":225,"cancellations":9,"license_type":"LTV+HTV","years_experience":5,"avg_response_time_min":8.0,"is_online":true,"reviews":["Good.","Safe.","On time.","Polite.","Good."],"job_timestamps":["2025-09-16 13:00:00","2025-09-13 14:00:00","2025-09-06 15:00:00","2025-08-31 16:00:00","2025-08-25 17:00:00"]},
{"driver_id":"AI_2148","name":"Shakeel Ahmed","city":"Rawalpindi","lat":33.7000,"lon":73.1600,"avg_rating":4.78,"rating_count":84,"completed_jobs":255,"accepted_jobs":265,"cancellations":6,"license_type":"LTV","years_experience":6,"avg_response_time_min":4.8,"is_online":true,"reviews":["Good driving.","Safe.","Punctual.","Polite.","Good knowledge."],"job_timestamps":["2025-09-15 12:00:00","2025-09-12 13:00:00","2025-09-05 14:00:00","2025-08-30 15:00:00","2025-08-24 16:00:00"]},
{"driver_id":"AI_2149","name":"Pervez Malik","city":"Peshawar","lat":34.1600,"lon":71.6700,"avg_rating":4.40,"rating_count":56,"completed_jobs":175,"accepted_jobs":195,"cancellations":10,"license_type":"HTV","years_experience":4,"avg_response_time_min":8.5,"is_online":false,"reviews":["Average.","Late sometimes.","Driving okay.","Route average.","Fine."],"job_timestamps":["2025-09-14 11:00:00","2025-09-11 12:00:00","2025-09-04 13:00:00","2025-08-29 14:00:00","2025-08-23 15:00:00"]},
{"driver_id":"AI_2150","name":"Javed Miandad","city":"Multan","lat":30.3000,"lon":71.6700,"avg_rating":4.68,"rating_count":76,"completed_jobs":230,"accepted_jobs":240,"cancellations":7,"license_type":"LTV","years_experience":7,"avg_response_time_min":5.8,"is_online":true,"reviews":["Good driver.","Safe.","Punctual.","Polite.","Knowledgeable."],"job_timestamps":["2025-09-13 10:00:00","2025-09-10 11:00:00","2025-09-03 12:00:00","2025-08-28 13:00:00","2025-08-22 14:00:00"]},
{"driver_id":"AI_2151","name":"Wasim Akram","city":"Gujranwala","lat":32.3300,"lon":74.3400,"avg_rating":5.00,"rating_count":155,"completed_jobs":460,"accepted_jobs":470,"cancellations":3,"license_type":"LTV","years_experience":10,"avg_response_time_min":2.2,"is_online":true,"reviews":["Excellent.","Superb.","Safe.","Fast.","Reliable."],"job_timestamps":["2025-09-12 09:00:00","2025-09-09 10:00:00","2025-09-02 11:00:00","2025-08-27 12:00:00","2025-08-21 13:00:00"]},
{"driver_id":"AI_2152","name":"Waqar Younis","city":"Hyderabad","lat":25.5400,"lon":68.5000,"avg_rating":2.05,"rating_count":8,"completed_jobs":58,"accepted_jobs":80,"cancellations":32,"license_type":"PSV","years_experience":3,"avg_response_time_min":31.0,"is_online":false,"reviews":["Below average.","Late.","Rash.","Poor.","Rude."],"job_timestamps":["2025-09-11 08:00:00","2025-09-08 09:00:00","2025-09-01 10:00:00","2025-08-26 11:00:00","2025-08-20 12:00:00"]},
{"driver_id":"AI_2153","name":"Imran Khan","city":"Quetta","lat":30.3200,"lon":67.1200,"avg_rating":4.58,"rating_count":64,"completed_jobs":200,"accepted_jobs":215,"cancellations":8,"license_type":"LTV","years_experience":6,"avg_response_time_min":6.8,"is_online":true,"reviews":["Good.","Safe.","Punctual.","Polite.","Good knowledge."],"job_timestamps":["2025-09-10 07:00:00","2025-09-07 08:00:00","2025-08-31 09:00:00","2025-08-25 10:00:00","2025-08-19 11:00:00"]},
{"driver_id":"AI_2154","name":"Nawaz Sharif","city":"Karachi","lat":25.0200,"lon":67.1700,"avg_rating":5.00,"rating_count":270,"completed_jobs":500,"accepted_jobs":505,"cancellations":0,"license_type":"LTV","years_experience":20,"avg_response_time_min":0.0,"is_online":true,"reviews":["Perfect.","Flawless.","Safe.","Fast.","Best."],"job_timestamps":["2025-09-09 06:00:00","2025-09-06 07:00:00","2025-08-30 08:00:00","2025-08-24 09:00:00","2025-08-18 10:00:00"]},
{"driver_id":"AI_2155","name":"Benazir Bhutto","city":"Lahore","lat":31.6800,"lon":74.5100,"avg_rating":2.55,"rating_count":6,"completed_jobs":55,"accepted_jobs":75,"cancellations":26,"license_type":"HTV","years_experience":4,"avg_response_time_min":27.0,"is_online":false,"reviews":["Average.","Late.","Okay.","Average.","Fine."],"job_timestamps":["2025-09-08 05:00:00","2025-09-05 06:00:00","2025-08-29 07:00:00","2025-08-23 08:00:00","2025-08-17 09:00:00"]},
{"driver_id":"AI_2156","name":"Asif Zardari","city":"Islamabad","lat":33.8300,"lon":73.2000,"avg_rating":4.90,"rating_count":92,"completed_jobs":330,"accepted_jobs":340,"cancellations":5,"license_type":"LTV","years_experience":8,"avg_response_time_min":2.8,"is_online":true,"reviews":["Great.","Safe.","Punctual.","Polite.","Professional."],"job_timestamps":["2025-09-07 04:00:00","2025-09-04 05:00:00","2025-08-28 06:00:00","2025-08-22 07:00:00","2025-08-16 08:00:00"]},
{"driver_id":"AI_2157","name":"Maryam Nawaz","city":"Faisalabad","lat":31.5600,"lon":73.2300,"avg_rating":4.48,"rating_count":68,"completed_jobs":215,"accepted_jobs":230,"cancellations":9,"license_type":"LTV+HTV","years_experience":5,"avg_response_time_min":7.8,"is_online":true,"reviews":["Good.","Safe.","On time.","Polite.","Good."],"job_timestamps":["2025-09-06 03:00:00","2025-09-03 04:00:00","2025-08-27 05:00:00","2025-08-21 06:00:00","2025-08-15 07:00:00"]},
{"driver_id":"AI_2158","name":"Bilawal Bhutto","city":"Rawalpindi","lat":33.7100,"lon":73.1700,"avg_rating":4.80,"rating_count":86,"completed_jobs":260,"accepted_jobs":270,"cancellations":6,"license_type":"LTV","years_experience":6,"avg_response_time_min":4.5,"is_online":true,"reviews":["Good driving.","Safe.","Punctual.","Polite.","Good knowledge."],"job_timestamps":["2025-09-05 02:00:00","2025-09-02 03:00:00","2025-08-26 04:00:00","2025-08-20 05:00:00","2025-08-14 06:00:00"]},
{"driver_id":"AI_2159","name":"Shehbaz Sharif","city":"Peshawar","lat":34.1700,"lon":71.6800,"avg_rating":4.45,"rating_count":58,"completed_jobs":180,"accepted_jobs":200,"cancellations":10,"license_type":"HTV","years_experience":4,"avg_response_time_min":8.0,"is_online":false,"reviews":["Average.","Late sometimes.","Driving okay.","Route average.","Fine."],"job_timestamps":["2025-09-04 01:00:00","2025-09-01 02:00:00","2025-08-25 03:00:00","2025-08-19 04:00:00","2025-08-13 05:00:00"]},
{"driver_id":"AI_2160","name":"Imran Ismail","city":"Multan","lat":30.3100,"lon":71.6800,"avg_rating":4.70,"rating_count":78,"completed_jobs":235,"accepted_jobs":245,"cancellations":7,"license_type":"LTV","years_experience":7,"avg_response_time_min":5.5,"is_online":true,"reviews":["Good driver.","Safe.","Punctual.","Polite.","Knowledgeable."],"job_timestamps":["2025-09-03 00:00:00","2025-08-31 01:00:00","2025-08-24 02:00:00","2025-08-18 03:00:00","2025-08-12 04:00:00"]},
{"driver_id":"AI_2161","name":"Murad Ali","city":"Gujranwala","lat":32.3400,"lon":74.3500,"avg_rating":5.00,"rating_count":160,"completed_jobs":470,"accepted_jobs":480,"cancellations":3,"license_type":"LTV","years_experience":10,"avg_response_time_min":2.1,"is_online":true,"reviews":["Excellent.","Superb.","Safe.","Fast.","Reliable."],"job_timestamps":["2025-09-02 23:00:00","2025-08-30 00:00:00","2025-08-23 01:00:00","2025-08-17 02:00:00","2025-08-11 03:00:00"]},
{"driver_id":"AI_2162","name":"Amin Khan","city":"Hyderabad","lat":25.5500,"lon":68.5100,"avg_rating":1.95,"rating_count":7,"completed_jobs":55,"accepted_jobs":78,"cancellations":33,"license_type":"PSV","years_experience":3,"avg_response_time_min":32.0,"is_online":false,"reviews":["Below average.","Late.","Rash.","Poor.","Rude."],"job_timestamps":["2025-09-01 22:00:00","2025-08-29 23:00:00","2025-08-22 00:00:00","2025-08-16 01:00:00","2025-08-10 02:00:00"]},
{"driver_id":"AI_2163","name":"Baloch Ahmed","city":"Quetta","lat":30.3300,"lon":67.1300,"avg_rating":4.60,"rating_count":66,"completed_jobs":205,"accepted_jobs":220,"cancellations":8,"license_type":"LTV","years_experience":6,"avg_response_time_min":6.5,"is_online":true,"reviews":["Good.","Safe.","Punctual.","Polite.","Good knowledge."],"job_timestamps":["2025-08-31 21:00:00","2025-08-28 22:00:00","2025-08-21 23:00:00","2025-08-15 00:00:00","2025-08-09 01:00:00"]},
{"driver_id":"AI_2164","name":"Sindhi Ali","city":"Karachi","lat":25.0300,"lon":67.1800,"avg_rating":5.00,"rating_count":280,"completed_jobs":500,"accepted_jobs":505,"cancellations":0,"license_type":"LTV","years_experience":20,"avg_response_time_min":0.0,"is_online":true,"reviews":["Perfect.","Flawless.","Safe.","Fast.","Best."],"job_timestamps":["2025-08-30 20:00:00","2025-08-27 21:00:00","2025-08-20 22:00:00","2025-08-14 23:00:00","2025-08-08 00:00:00"]},
{"driver_id":"AI_2165","name":"Punjabi Khan","city":"Lahore","lat":31.6900,"lon":74.5200,"avg_rating":2.45,"rating_count":4,"completed_jobs":50,"accepted_jobs":70,"cancellations":27,"license_type":"HTV","years_experience":4,"avg_response_time_min":28.0,"is_online":false,"reviews":["Average.","Late.","Okay.","Average.","Fine."],"job_timestamps":["2025-08-29 19:00:00","2025-08-26 20:00:00","2025-08-19 21:00:00","2025-08-13 22:00:00","2025-08-07 23:00:00"]},
{"driver_id":"AI_2166","name":"KPK Malik","city":"Islamabad","lat":33.8400,"lon":73.2100,"avg_rating":4.92,"rating_count":94,"completed_jobs":340,"accepted_jobs":350,"cancellations":5,"license_type":"LTV","years_experience":8,"avg_response_time_min":2.5,"is_online":true,"reviews":["Great.","Safe.","Punctual.","Polite.","Professional."],"job_timestamps":["2025-08-28 18:00:00","2025-08-25 19:00:00","2025-08-18 20:00:00","2025-08-12 21:00:00","2025-08-06 22:00:00"]},
{"driver_id":"AI_2167","name":"Gilgit Hussain","city":"Faisalabad","lat":31.5700,"lon":73.2400,"avg_rating":4.50,"rating_count":70,"completed_jobs":220,"accepted_jobs":235,"cancellations":9,"license_type":"LTV+HTV","years_experience":5,"avg_response_time_min":7.5,"is_online":true,"reviews":["Good.","Safe.","On time.","Polite.","Good."],"job_timestamps":["2025-08-27 17:00:00","2025-08-24 18:00:00","2025-08-17 19:00:00","2025-08-11 20:00:00","2025-08-05 21:00:00"]},
{"driver_id":"AI_2168","name":"Kashmir Ahmed","city":"Rawalpindi","lat":33.7200,"lon":73.1800,"avg_rating":4.82,"rating_count":88,"completed_jobs":265,"accepted_jobs":275,"cancellations":6,"license_type":"LTV","years_experience":6,"avg_response_time_min":4.2,"is_online":true,"reviews":["Good driving.","Safe.","Punctual.","Polite.","Good knowledge."],"job_timestamps":["2025-08-26 16:00:00","2025-08-23 17:00:00","2025-08-16 18:00:00","2025-08-10 19:00:00","2025-08-04 20:00:00"]},
{"driver_id":"AI_2169","name":"FATA Khan","city":"Peshawar","lat":34.1800,"lon":71.6900,"avg_rating":4.50,"rating_count":60,"completed_jobs":185,"accepted_jobs":205,"cancellations":10,"license_type":"HTV","years_experience":4,"avg_response_time_min":7.5,"is_online":false,"reviews":["Average.","Late sometimes.","Driving okay.","Route average.","Fine."],"job_timestamps":["2025-08-25 15:00:00","2025-08-22 16:00:00","2025-08-15 17:00:00","2025-08-09 18:00:00","2025-08-03 19:00:00"]},
{"driver_id":"AI_2170","name":"Saraiki Ali","city":"Multan","lat":30.3200,"lon":71.6900,"avg_rating":4.72,"rating_count":80,"completed_jobs":240,"accepted_jobs":250,"cancellations":7,"license_type":"LTV","years_experience":7,"avg_response_time_min":5.2,"is_online":true,"reviews":["Good driver.","Safe.","Punctual.","Polite.","Knowledgeable."],"job_timestamps":["2025-08-24 14:00:00","2025-08-21 15:00:00","2025-08-14 16:00:00","2025-08-08 17:00:00","2025-08-02 18:00:00"]},
{"driver_id":"AI_2171","name":"Hazarwi Khan","city":"Gujranwala","lat":32.3500,"lon":74.3600,"avg_rating":5.00,"rating_count":165,"completed_jobs":480,"accepted_jobs":490,"cancellations":3,"license_type":"LTV","years_experience":10,"avg_response_time_min":2.0,"is_online":true,"reviews":["Excellent.","Superb.","Safe.","Fast.","Reliable."],"job_timestamps":["2025-08-23 13:00:00","2025-08-20 14:00:00","2025-08-13 15:00:00","2025-08-07 16:00:00","2025-08-01 17:00:00"]},
{"driver_id":"AI_2172","name":"Muhajir Ahmed","city":"Hyderabad","lat":25.5600,"lon":68.5200,"avg_rating":1.85,"rating_count":6,"completed_jobs":52,"accepted_jobs":75,"cancellations":34,"license_type":"PSV","years_experience":3,"avg_response_time_min":33.0,"is_online":false,"reviews":["Below average.","Late.","Rash.","Poor.","Rude."],"job_timestamps":["2025-08-22 12:00:00","2025-08-19 13:00:00","2025-08-12 14:00:00","2025-08-06 15:00:00","2025-07-31 16:00:00"]},
{"driver_id":"AI_2173","name":"Pathan Khan","city":"Quetta","lat":30.3400,"lon":67.1400,"avg_rating":4.62,"rating_count":68,"completed_jobs":210,"accepted_jobs":225,"cancellations":8,"license_type":"LTV","years_experience":6,"avg_response_time_min":6.2,"is_online":true,"reviews":["Good.","Safe.","Punctual.","Polite.","Good knowledge."],"job_timestamps":["2025-08-21 11:00:00","2025-08-18 12:00:00","2025-08-11 13:00:00","2025-08-05 14:00:00","2025-07-30 15:00:00"]},
{"driver_id":"AI_2174","name":"Balochi Ali","city":"Karachi","lat":25.0400,"lon":67.1900,"avg_rating":5.00,"rating_count":290,"completed_jobs":500,"accepted_jobs":505,"cancellations":0,"license_type":"LTV","years_experience":20,"avg_response_time_min":0.0,"is_online":true,"reviews":["Perfect.","Flawless.","Safe.","Fast.","Best."],"job_timestamps":["2025-08-20 10:00:00","2025-08-17 11:00:00","2025-08-10 12:00:00","2025-08-04 13:00:00","2025-07-29 14:00:00"]},
{"driver_id":"AI_2175","name":"Sindhi Khan","city":"Lahore","lat":31.7000,"lon":74.5300,"avg_rating":2.35,"rating_count":2,"completed_jobs":45,"accepted_jobs":65,"cancellations":28,"license_type":"HTV","years_experience":4,"avg_response_time_min":29.0,"is_online":false,"reviews":["Average.","Late.","Okay.","Average.","Fine."],"job_timestamps":["2025-08-19 09:00:00","2025-08-16 10:00:00","2025-08-09 11:00:00","2025-08-03 12:00:00","2025-07-28 13:00:00"]},
{"driver_id":"AI_2176","name":"Punjabi Ahmed","city":"Islamabad","lat":33.8500,"lon":73.2200,"avg_rating":4.95,"rating_count":96,"completed_jobs":350,"accepted_jobs":360,"cancellations":5,"license_type":"LTV","years_experience":8,"avg_response_time_min":2.2,"is_online":true,"reviews":["Great.","Safe.","Punctual.","Polite.","Professional."],"job_timestamps":["2025-08-18 08:00:00","2025-08-15 09:00:00","2025-08-08 10:00:00","2025-08-02 11:00:00","2025-07-27 12:00:00"]},
{"driver_id":"AI_2177","name":"Kashmiri Khan","city":"Faisalabad","lat":31.5800,"lon":73.2500,"avg_rating":4.52,"rating_count":72,"completed_jobs":225,"accepted_jobs":240,"cancellations":9,"license_type":"LTV+HTV","years_experience":5,"avg_response_time_min":7.2,"is_online":true,"reviews":["Good.","Safe.","On time.","Polite.","Good."],"job_timestamps":["2025-08-17 07:00:00","2025-08-14 08:00:00","2025-08-07 09:00:00","2025-08-01 10:00:00","2025-07-26 11:00:00"]},
{"driver_id":"AI_2178","name":"Gilgiti Ali","city":"Rawalpindi","lat":33.7300,"lon":73.1900,"avg_rating":4.85,"rating_count":90,"completed_jobs":270,"accepted_jobs":280,"cancellations":6,"license_type":"LTV","years_experience":6,"avg_response_time_min":4.0,"is_online":true,"reviews":["Good driving.","Safe.","Punctual.","Polite.","Good knowledge."],"job_timestamps":["2025-08-16 06:00:00","2025-08-13 07:00:00","2025-08-06 08:00:00","2025-07-31 09:00:00","2025-07-25 10:00:00"]},
{"driver_id":"AI_2179","name":"Chitrali Khan","city":"Peshawar","lat":34.1900,"lon":71.7000,"avg_rating":4.55,"rating_count":62,"completed_jobs":190,"accepted_jobs":210,"cancellations":10,"license_type":"HTV","years_experience":4,"avg_response_time_min":7.0,"is_online":false,"reviews":["Average.","Late sometimes.","Driving okay.","Route average.","Fine."],"job_timestamps":["2025-08-15 05:00:00","2025-08-12 06:00:00","2025-08-05 07:00:00","2025-07-30 08:00:00","2025-07-24 09:00:00"]},
{"driver_id":"AI_2180","name":"Swati Ahmed","city":"Multan","lat":30.3300,"lon":71.7000,"avg_rating":4.75,"rating_count":82,"completed_jobs":245,"accepted_jobs":255,"cancellations":7,"license_type":"LTV","years_experience":7,"avg_response_time_min":5.0,"is_online":true,"reviews":["Good driver.","Safe.","Punctual.","Polite.","Knowledgeable."],"job_timestamps":["2025-08-14 04:00:00","2025-08-11 05:00:00","2025-08-04 06:00:00","2025-07-29 07:00:00","2025-07-23 08:00:00"]},
{"driver_id":"AI_2181","name":"Abbottabadi Khan","city":"Gujranwala","lat":32.3600,"lon":74.3700,"avg_rating":5.00,"rating_count":170,"completed_jobs":490,"accepted_jobs":500,"cancellations":3,"license_type":"LTV","years_experience":10,"avg_response_time_min":1.9,"is_online":true,"reviews":["Excellent.","Superb.","Safe.","Fast.","Reliable."],"job_timestamps":["2025-08-13 03:00:00","2025-08-10 04:00:00","2025-08-03 05:00:00","2025-07-28 06:00:00","2025-07-22 07:00:00"]},
{"driver_id":"AI_2182","name":"Mardanwi Ali","city":"Hyderabad","lat":25.5700,"lon":68.5300,"avg_rating":1.75,"rating_count":5,"completed_jobs":50,"accepted_jobs":72,"cancellations":35,"license_type":"PSV","years_experience":3,"avg_response_time_min":34.0,"is_online":false,"reviews":["Below average.","Late.","Rash.","Poor.","Rude."],"job_timestamps":["2025-08-12 02:00:00","2025-08-09 03:00:00","2025-08-02 04:00:00","2025-07-27 05:00:00","2025-07-21 06:00:00"]},
{"driver_id":"AI_2183","name":"Swati Khan","city":"Quetta","lat":30.3500,"lon":67.1500,"avg_rating":4.65,"rating_count":70,"completed_jobs":215,"accepted_jobs":230,"cancellations":8,"license_type":"LTV","years_experience":6,"avg_response_time_min":6.0,"is_online":true,"reviews":["Good.","Safe.","Punctual.","Polite.","Good knowledge."],"job_timestamps":["2025-08-11 01:00:00","2025-08-08 02:00:00","2025-08-01 03:00:00","2025-07-26 04:00:00","2025-07-20 05:00:00"]},
{"driver_id":"AI_2184","name":"Dirwi Ahmed","city":"Karachi","lat":25.0500,"lon":67.2000,"avg_rating":5.00,"rating_count":300,"completed_jobs":500,"accepted_jobs":505,"cancellations":0,"license_type":"LTV","years_experience":20,"avg_response_time_min":0.0,"is_online":true,"reviews":["Perfect.","Flawless.","Safe.","Fast.","Best."],"job_timestamps":["2025-08-10 00:00:00","2025-08-07 01:00:00","2025-07-31 02:00:00","2025-07-25 03:00:00","2025-07-19 04:00:00"]},
{"driver_id":"AI_2185","name":"Malakandi Khan","city":"Lahore","lat":31.7100,"lon":74.5400,"avg_rating":2.25,"rating_count":0,"completed_jobs":40,"accepted_jobs":60,"cancellations":29,"license_type":"HTV","years_experience":4,"avg_response_time_min":30.0,"is_online":false,"reviews":[],"job_timestamps":["2025-08-09 23:00:00","2025-08-06 00:00:00","2025-07-30 01:00:00","2025-07-24 02:00:00","2025-07-18 03:00:00"]},
{"driver_id":"AI_2186","name":"Bajauri Ali","city":"Islamabad","lat":33.8600,"lon":73.2300,"avg_rating":4.98,"rating_count":98,"completed_jobs":360,"accepted_jobs":370,"cancellations":5,"license_type":"LTV","years_experience":8,"avg_response_time_min":2.0,"is_online":true,"reviews":["Great.","Safe.","Punctual.","Polite.","Professional."],"job_timestamps":["2025-08-08 22:00:00","2025-08-05 23:00:00","2025-07-29 00:00:00","2025-07-23 01:00:00","2025-07-17 02:00:00"]},
{"driver_id":"AI_2187","name":"Mohmand Khan","city":"Faisalabad","lat":31.5900,"lon":73.2600,"avg_rating":4.55,"rating_count":74,"completed_jobs":230,"accepted_jobs":245,"cancellations":9,"license_type":"LTV+HTV","years_experience":5,"avg_response_time_min":7.0,"is_online":true,"reviews":["Good.","Safe.","On time.","Polite.","Good."],"job_timestamps":["2025-08-07 21:00:00","2025-08-04 22:00:00","2025-07-28 23:00:00","2025-07-22 00:00:00","2025-07-16 01:00:00"]},
{"driver_id":"AI_2188","name":"Khyberi Ahmed","city":"Rawalpindi","lat":33.7400,"lon":73.2000,"avg_rating":4.88,"rating_count":92,"completed_jobs":275,"accepted_jobs":285,"cancellations":6,"license_type":"LTV","years_experience":6,"avg_response_time_min":3.8,"is_online":true,"reviews":["Good driving.","Safe.","Punctual.","Polite.","Good knowledge."],"job_timestamps":["2025-08-06 20:00:00","2025-08-03 21:00:00","2025-07-27 22:00:00","2025-07-21 23:00:00","2025-07-15 00:00:00"]},
{"driver_id":"AI_2189","name":"Kurramwi Khan","city":"Peshawar","lat":34.2000,"lon":71.7100,"avg_rating":4.60,"rating_count":64,"completed_jobs":195,"accepted_jobs":215,"cancellations":10,"license_type":"HTV","years_experience":4,"avg_response_time_min":6.5,"is_online":false,"reviews":["Average.","Late sometimes.","Driving okay.","Route average.","Fine."],"job_timestamps":["2025-08-05 19:00:00","2025-08-02 20:00:00","2025-07-26 21:00:00","2025-07-20 22:00:00","2025-07-14 23:00:00"]},
{"driver_id":"AI_2190","name":"Orakzai Ali","city":"Multan","lat":30.3400,"lon":71.7100,"avg_rating":4.78,"rating_count":84,"completed_jobs":250,"accepted_jobs":260,"cancellations":7,"license_type":"LTV","years_experience":7,"avg_response_time_min":4.8,"is_online":true,"reviews":["Good driver.","Safe.","Punctual.","Polite.","Knowledgeable."],"job_timestamps":["2025-08-04 18:00:00","2025-08-01 19:00:00","2025-07-25 20:00:00","2025-07-19 21:00:00","2025-07-13 22:00:00"]},
{"driver_id":"AI_2191","name":"Waziri Khan","city":"Gujranwala","lat":32.3700,"lon":74.3800,"avg_rating":5.00,"rating_count":175,"completed_jobs":500,"accepted_jobs":510,"cancellations":3,"license_type":"LTV","years_experience":10,"avg_response_time_min":1.8,"is_online":true,"reviews":["Excellent.","Superb.","Safe.","Fast.","Reliable."],"job_timestamps":["2025-08-03 17:00:00","2025-07-31 18:00:00","2025-07-24 19:00:00","2025-07-18 20:00:00","2025-07-12 21:00:00"]},
{"driver_id":"AI_2192","name":"Zhobi Ahmed","city":"Hyderabad","lat":25.5800,"lon":68.5400,"avg_rating":1.65,"rating_count":4,"completed_jobs":48,"accepted_jobs":70,"cancellations":36,"license_type":"PSV","years_experience":3,"avg_response_time_min":35.0,"is_online":false,"reviews":["Below average.","Late.","Rash.","Poor.","Rude."],"job_timestamps":["2025-08-02 16:00:00","2025-07-30 17:00:00","2025-07-23 18:00:00","2025-07-17 19:00:00","2025-07-11 20:00:00"]},
{"driver_id":"AI_2193","name":"Loralai Khan","city":"Quetta","lat":30.3600,"lon":67.1600,"avg_rating":4.68,"rating_count":72,"completed_jobs":220,"accepted_jobs":235,"cancellations":8,"license_type":"LTV","years_experience":6,"avg_response_time_min":5.8,"is_online":true,"reviews":["Good.","Safe.","Punctual.","Polite.","Good knowledge."],"job_timestamps":["2025-08-01 15:00:00","2025-07-29 16:00:00","2025-07-22 17:00:00","2025-07-16 18:00:00","2025-07-10 19:00:00"]},
{"driver_id":"AI_2194","name":"Pishinwi Ali","city":"Karachi","lat":25.0600,"lon":67.2100,"avg_rating":5.00,"rating_count":310,"completed_jobs":500,"accepted_jobs":505,"cancellations":0,"license_type":"LTV","years_experience":20,"avg_response_time_min":0.0,"is_online":true,"reviews":["Perfect.","Flawless.","Safe.","Fast.","Best."],"job_timestamps":["2025-07-31 14:00:00","2025-07-28 15:00:00","2025-07-21 16:00:00","2025-07-15 17:00:00","2025-07-09 18:00:00"]},
{"driver_id":"AI_2195","name":"Kalatwi Khan","city":"Lahore","lat":31.7200,"lon":74.5500,"avg_rating":2.15,"rating_count":0,"completed_jobs":35,"accepted_jobs":55,"cancellations":30,"license_type":"HTV","years_experience":4,"avg_response_time_min":31.0,"is_online":false,"reviews":[],"job_timestamps":["2025-07-30 13:00:00","2025-07-27 14:00:00","2025-07-20 15:00:00","2025-07-14 16:00:00","2025-07-08 17:00:00"]},
{"driver_id":"AI_2196","name":"Khuzdari Ahmed","city":"Islamabad","lat":33.8700,"lon":73.2400,"avg_rating":5.00,"rating_count":100,"completed_jobs":370,"accepted_jobs":380,"cancellations":5,"license_type":"LTV","years_experience":8,"avg_response_time_min":1.8,"is_online":true,"reviews":["Great.","Safe.","Punctual.","Polite.","Professional."],"job_timestamps":["2025-07-29 12:00:00","2025-07-26 13:00:00","2025-07-19 14:00:00","2025-07-13 15:00:00","2025-07-07 16:00:00"]},
{"driver_id":"AI_2197","name":"Mastungi Khan","city":"Faisalabad","lat":31.6000,"lon":73.2700,"avg_rating":4.58,"rating_count":76,"completed_jobs":235,"accepted_jobs":250,"cancellations":9,"license_type":"LTV+HTV","years_experience":5,"avg_response_time_min":6.8,"is_online":true,"reviews":["Good.","Safe.","On time.","Polite.","Good."],"job_timestamps":["2025-07-28 11:00:00","2025-07-25 12:00:00","2025-07-18 13:00:00","2025-07-12 14:00:00","2025-07-06 15:00:00"]},
{"driver_id":"AI_2198","name":"Dera Ali","city":"Rawalpindi","lat":33.7500,"lon":73.2100,"avg_rating":4.90,"rating_count":94,"completed_jobs":280,"accepted_jobs":290,"cancellations":6,"license_type":"LTV","years_experience":6,"avg_response_time_min":3.5,"is_online":true,"reviews":["Good driving.","Safe.","Punctual.","Polite.","Good knowledge."],"job_timestamps":["2025-07-27 10:00:00","2025-07-24 11:00:00","2025-07-17 12:00:00","2025-07-11 13:00:00","2025-07-05 14:00:00"]},
{"driver_id":"AI_2199","name":"Nushkiwi Khan","city":"Peshawar","lat":34.2100,"lon":71.7200,"avg_rating":4.65,"rating_count":66,"completed_jobs":200,"accepted_jobs":220,"cancellations":10,"license_type":"HTV","years_experience":4,"avg_response_time_min":6.0,"is_online":false,"reviews":["Average.","Late sometimes.","Driving okay.","Route average.","Fine."],"job_timestamps":["2025-07-26 09:00:00","2025-07-23 10:00:00","2025-07-16 11:00:00","2025-07-10 12:00:00","2025-07-04 13:00:00"]},
{"driver_id":"AI_2200","name":"Gwadari Ahmed","city":"Multan","lat":30.3500,"lon":71.7200,"avg_rating":4.80,"rating_count":86,"completed_jobs":255,"accepted_jobs":265,"cancellations":7,"license_type":"LTV","years_experience":7,"avg_response_time_min":4.5,"is_online":true,"reviews":["Good driver.","Safe.","Punctual.","Polite.","Knowledgeable."],"job_timestamps":["2025-07-25 08:00:00","2025-07-22 09:00:00","2025-07-15 10:00:00","2025-07-09 11:00:00","2025-07-03 12:00:00"]}
]